[{"tiploc":"ALDRSJN","crs":"ZAJ","name":"Aldershot North Junction","lat":0,"lon":0},{"tiploc":"LRDDEAC","crs":"ZLR","name":"London Road Depot","lat":0,"lon":0},{"tiploc":"BRKNIOM","crs":"BKI","name":"Birkenhead 12 Quays","lat":0,"lon":0},{"tiploc":"LILBDGE","crs":"ZLB","name":"Lillie Bridge Depot LUL","lat":0,"lon":0},{"tiploc":"OXFPWAY","crs":"OXP","name":"Oxford Parkway","lat":0,"lon":0},{"tiploc":"GRVSFRY","crs":"ZGP","name":"Gravesend Town Pier","lat":0,"lon":0},{"tiploc":"NTNGMJN","crs":"ZMJ","name":"Mansfield Junction","lat":0,"lon":0},{"tiploc":"PRBRITJ","crs":"ZPB","name":"Pirbright Junction","lat":0,"lon":0},{"tiploc":"BORMRKJ","crs":"ZBM","name":"Borough Market Junction","lat":0,"lon":0},{"tiploc":"SHTLTNL","crs":"ZSL","name":"Shettleston Loop","lat":0,"lon":0},{"tiploc":"ILKES","crs":"ILN","name":"Ilkeston","lat":0,"lon":0},{"tiploc":"BCSTSJ","crs":"XJV","name":"Bicester South Junction","lat":0,"lon":0},{"tiploc":"CARLLRJ","crs":"ZCR","name":"Carlisle London Road Junction","lat":0,"lon":0},{"tiploc":"WDNPK","crs":"WPK","name":"Wimbledon Park","lat":0,"lon":0},{"tiploc":"NMPTNNJ","crs":"ZNJ","name":"Northampton North Junction","lat":52.2427,"lon":-0.907905},{"tiploc":"PLASTOW","crs":"ZPS","name":"Plaistow L.T.","lat":51.5314,"lon":0.01722},{"tiploc":"MRSLSTC","crs":"MSC","name":"Marseille St Charles","lat":43.3032794,"lon":5.380142},{"tiploc":"CRNFUGL","crs":"XCS","name":"Carnforth D&U.G.L.","lat":0,"lon":0},{"tiploc":"ALDGEST","crs":"ZAE","name":"Aldgate East","lat":51.51504,"lon":-0.07236},{"tiploc":"EPUTNEY","crs":"ZEP","name":"East Putney","lat":51.4592,"lon":-0.21098},{"tiploc":"GOREBRG","crs":"GBG","name":"Gorebridge","lat":55.8404,"lon":-3.0468},{"tiploc":"HLWYRLT","crs":"ZHR","name":"Holloway Road","lat":51.5527,"lon":-0.11322},{"tiploc":"PADTLUL","crs":"ZPN","name":"Paddington (Bakerloo Line)","lat":51.5166744,"lon":-0.1769328},{"tiploc":"FLKSTNE","crs":"FKE","name":"Folkestone East","lat":0,"lon":0},{"tiploc":"NWMILSC","crs":"NMC","name":"New Mills Central","lat":53.36484014431577,"lon":-2.005671137351082},{"tiploc":"HBRTBDG","crs":"HBB","name":"Hubberts Bridge","lat":52.9753511176829,"lon":-0.1105287604554698},{"tiploc":"ADLC","crs":"ADC","name":"Adlington (Cheshire)","lat":53.31955235777388,"lon":-2.133562473910576},{"tiploc":"WHSTBLE","crs":"WHI","name":"Whitstable","lat":51.357580617532406,"lon":1.0332947132577845},{"tiploc":"FELL","crs":"FEG","name":"Fellgate (T & W Metro)","lat":54.9575,"lon":-1.4856},{"tiploc":"HORSHAM","crs":"HRH","name":"Horsham","lat":51.066063124425554,"lon":-0.3192694871777138},{"tiploc":"LLWRTYW","crs":"LNW","name":"Llanwrtyd","lat":52.10470909770377,"lon":-3.632163294272856},{"tiploc":"RYDP","crs":"RYP","name":"Ryde Pier Head","lat":50.73918327908035,"lon":-1.1601266594011788},{"tiploc":"PRUDHOE","crs":"PRU","name":"Prudhoe","lat":54.965826626951085,"lon":-1.8648655591006895},{"tiploc":"TILHRST","crs":"TLH","name":"Tilehurst","lat":51.47150697354234,"lon":-1.0298158886948712},{"tiploc":"SBRMNDS","crs":"SBM","name":"South Bermondsey","lat":51.488133701347216,"lon":-0.05467773259566379},{"tiploc":"TMWTHLL","crs":"TAM","name":"Tamworth","lat":52.6374725972589,"lon":-1.686464391730138},{"tiploc":"CASTLFD","crs":"CFD","name":"Castleford","lat":53.72407559898754,"lon":-1.35465262548041},{"tiploc":"NWMILSN","crs":"NMN","name":"New Mills Newtown","lat":53.35962657210294,"lon":-2.008525264295832},{"tiploc":"HTFLASF","crs":"HFS","name":"Hatfield & Stainforth","lat":53.58871368782976,"lon":-1.0233772748744818},{"tiploc":"WATFDN","crs":"WFN","name":"Watford North","lat":51.675702219771104,"lon":-0.3899257937696956},{"tiploc":"GOWERTN","crs":"GWN","name":"Gowerton","lat":51.64872358562804,"lon":-4.035934479114915},{"tiploc":"WLTHQRD","crs":"WMW","name":"Walthamstow Queens Road","lat":51.58150104719928,"lon":-0.023845887175490868},{"tiploc":"INVERKP","crs":"INP","name":"Inverkip","lat":55.90610312153251,"lon":-4.872586072772624},{"tiploc":"WARWICK","crs":"WRW","name":"Warwick","lat":52.28653801648657,"lon":-1.5818545007447564},{"tiploc":"WSTHOTN","crs":"WHG","name":"Westhoughton","lat":53.55566819673773,"lon":-2.5237266450406066},{"tiploc":"WDON","crs":"WIM","name":"Wimbledon","lat":51.42127371866525,"lon":-0.2063686576928071},{"tiploc":"CLHM","crs":"CLM","name":"Collingham","lat":53.14408448104717,"lon":-0.7503938976960878},{"tiploc":"DRIFILD","crs":"DRF","name":"Driffield","lat":54.001526466394274,"lon":-0.4346649942825077},{"tiploc":"NWTP","crs":"NWT","name":"Newtown (Powys)","lat":52.51231212088594,"lon":-3.3113916901658813},{"tiploc":"STHNDE","crs":"SOE","name":"Southend East","lat":51.53897060609761,"lon":0.7318147145803867},{"tiploc":"PNYF","crs":"PNF","name":"Penyffordd","lat":53.14308738666073,"lon":-3.054838192002942},{"tiploc":"WYEE","crs":"WYE","name":"Wye","lat":51.18500966830934,"lon":0.9293036963612706},{"tiploc":"BARELA","crs":"BAR","name":"Bare Lane","lat":54.07453979181289,"lon":-2.8353303932432916},{"tiploc":"YAAM","crs":"YRM","name":"Yarm","lat":54.49389738980757,"lon":-1.3515450592250695},{"tiploc":"NEATH","crs":"NTH","name":"Neath","lat":51.662359111281624,"lon":-3.8072189039303455},{"tiploc":"COLONSY","crs":"CYA","name":"Colonsay (Bus)","lat":0,"lon":0},{"tiploc":"ERITH","crs":"ERH","name":"Erith","lat":51.48166900692033,"lon":0.1750544564860437},{"tiploc":"CHLFNAL","crs":"CFO","name":"Chalfont & Latimer","lat":51.668106648720055,"lon":-0.5605263752238989},{"tiploc":"FGDHGWK","crs":"FGW","name":"Fishguard & Goodwick","lat":52.004112006959396,"lon":-4.994837652484635},{"tiploc":"BAYFORD","crs":"BAY","name":"Bayford","lat":51.757714574061566,"lon":-0.09561001507817089},{"tiploc":"BEARLEY","crs":"BER","name":"Bearley","lat":52.24440874629407,"lon":-1.7502552967947613},{"tiploc":"STNGBRN","crs":"SIT","name":"Sittingbourne","lat":51.341974727054094,"lon":0.7346843484403418},{"tiploc":"WHHRTLA","crs":"WHL","name":"White Hart Lane","lat":51.60503519953401,"lon":-0.07091361472615568},{"tiploc":"DUIRNSH","crs":"DRN","name":"Duirinish","lat":57.319975113020284,"lon":-5.691316014473059},{"tiploc":"STHWICK","crs":"SWK","name":"Southwick","lat":50.832514368407196,"lon":-0.23596186561705684},{"tiploc":"MMIL","crs":"MTM","name":"Martin Mill","lat":51.17067570362856,"lon":1.3482170568820318},{"tiploc":"NWTM","crs":"NWR","name":"Newtonmore","lat":57.05914491324135,"lon":-4.119108814773747},{"tiploc":"ADIEWEL","crs":"ADW","name":"Addiewell","lat":55.84340784253798,"lon":-3.606526376773403},{"tiploc":"ALVCHRC","crs":"ALV","name":"Alvechurch","lat":52.34606891998832,"lon":-1.9676605017322362},{"tiploc":"SURREYQ","crs":"SQE","name":"Surrey Quays","lat":51.49319447779276,"lon":-0.04751865829118127},{"tiploc":"HGHBRDG","crs":"HIG","name":"Highbridge & Burnham","lat":51.21815502922789,"lon":-2.9721533908124327},{"tiploc":"ROTHCEN","crs":"RMC","name":"Rotherham Central","lat":53.432251559820834,"lon":-1.3604345607919237},{"tiploc":"NWTL","crs":"NTN","name":"Newton","lat":55.81877671657123,"lon":-4.133054709382332},{"tiploc":"STONEGS","crs":"SGQ","name":"Stone Granville Square (Bus)","lat":0,"lon":0},{"tiploc":"CBORNE","crs":"CBN","name":"Camborne","lat":50.210433925906514,"lon":-5.2974106706722655},{"tiploc":"RHOOSE","crs":"RIA","name":"Rhoose Cardiff Intl Airport","lat":51.38706459783867,"lon":-3.3493838353136653},{"tiploc":"BOXHAWH","crs":"BXW","name":"Boxhill & Westhumble","lat":51.25401001426,"lon":-0.32848994172738305},{"tiploc":"THORNEN","crs":"TNN","name":"Thorne North","lat":53.61606124384618,"lon":-0.9723307794610068},{"tiploc":"FRATTON","crs":"FTN","name":"Fratton","lat":50.796337106104,"lon":-1.0739827022988337},{"tiploc":"RUABON","crs":"RUA","name":"Ruabon","lat":52.98713313505407,"lon":-3.043138542341498},{"tiploc":"GLSTHAL","crs":"XEA","name":"Glastonbury (Bus)","lat":0,"lon":0},{"tiploc":"LAYTON","crs":"LAY","name":"Layton","lat":53.83526625989941,"lon":-3.0299904258660084},{"tiploc":"LLDVERY","crs":"LLV","name":"Llandovery","lat":51.995310636863586,"lon":-3.80282879308186},{"tiploc":"MANORS","crs":"MAS","name":"Manors","lat":54.972763518136226,"lon":-1.6047409573451414},{"tiploc":"CLYGATE","crs":"CLG","name":"Claygate","lat":51.36121218077412,"lon":-0.34824778329177025},{"tiploc":"CSTR","crs":"CTT","name":"Church Stretton","lat":52.537419667934124,"lon":-2.8036943079431875},{"tiploc":"GRGRAVE","crs":"GGV","name":"Gargrave","lat":53.97841477355686,"lon":-2.1051703793356187},{"tiploc":"WARWUNI","crs":"XWU","name":"Warwick University (Bus)","lat":0,"lon":0},{"tiploc":"PBRODMP","crs":"DEB","name":"Dereham Market Place (Bus)","lat":0,"lon":0},{"tiploc":"THORNES","crs":"TNS","name":"Thorne South","lat":53.603328010572355,"lon":-0.9551092058270974},{"tiploc":"CREWE","crs":"CRE","name":"Crewe","lat":53.08962322780806,"lon":-2.432968823121986},{"tiploc":"WREXHMC","crs":"WXC","name":"Wrexham Central","lat":53.046186432888,"lon":-2.999052511549906},{"tiploc":"CADOXTN","crs":"CAD","name":"Cadoxton","lat":51.41227778525325,"lon":-3.2488953225675563},{"tiploc":"HONYBRN","crs":"HYB","name":"Honeybourne","lat":52.101598709773256,"lon":-1.8337427160436979},{"tiploc":"WIGTON","crs":"WGT","name":"Wigton","lat":54.829115571998074,"lon":-3.164342616719991},{"tiploc":"WLGFORD","crs":"XWX","name":"Wallingford Market Place (Bus)","lat":0,"lon":0},{"tiploc":"WREXHMG","crs":"WRX","name":"Wrexham General","lat":53.050230134111416,"lon":-3.0024430064248198},{"tiploc":"RHOSNGR","crs":"RHO","name":"Rhosneigr","lat":53.2348357504032,"lon":-4.506641787894214},{"tiploc":"STNVBUS","crs":"XEI","name":"St Neots (Bus)","lat":0,"lon":0},{"tiploc":"KIDWELY","crs":"KWL","name":"Kidwelly","lat":51.73433986422341,"lon":-4.316985391784186},{"tiploc":"RYDE","crs":"RYD","name":"Ryde Esplanade","lat":50.7328666299251,"lon":-1.159616115933744},{"tiploc":"PHLD","crs":"PTL","name":"Priesthill & Darnley","lat":55.81217048887149,"lon":-4.342894577700912},{"tiploc":"NWTH","crs":"NWN","name":"Newton for Hyde","lat":53.456378555456524,"lon":-2.067142385319519},{"tiploc":"DONCBRN","crs":"BNX","name":"Barnsley (Bus)","lat":0,"lon":0},{"tiploc":"STNBGPK","crs":"SBP","name":"Stonebridge Park","lat":51.544109160337705,"lon":-0.2758284211176524},{"tiploc":"PVNSYAW","crs":"PEV","name":"Pevensey & Westham","lat":50.81579723688428,"lon":0.32480740946206854},{"tiploc":"ACLE","crs":"ACL","name":"Acle","lat":52.63467971373351,"lon":1.5439151251229433},{"tiploc":"GORDONH","crs":"GDH","name":"Gordon Hill","lat":51.66333329207766,"lon":-0.09461050664366928},{"tiploc":"DUNOON","crs":"DUO","name":"Dunoon (Bus)","lat":0,"lon":0},{"tiploc":"LSYDNHM","crs":"LSY","name":"Lower Sydenham","lat":51.42482888219944,"lon":-0.03334548173294932},{"tiploc":"SEABURN","crs":"SEB","name":"Seaburn (T & W Metro)","lat":54.92953396823464,"lon":-1.3866933393897771},{"tiploc":"ABRYSTH","crs":"AYW","name":"Aberystwyth","lat":52.4140430910303,"lon":-4.081893448795905},{"tiploc":"LENZIE","crs":"LNZ","name":"Lenzie","lat":55.921317151033506,"lon":-4.1538903849840905},{"tiploc":"MORDENS","crs":"MDS","name":"Morden South","lat":51.39611445846409,"lon":-0.19946099099884787},{"tiploc":"ADERLYP","crs":"ADD","name":"Adderley Park","lat":52.48308428185418,"lon":-1.8559444316309872},{"tiploc":"EFARLGH","crs":"EFL","name":"East Farleigh","lat":51.25523567770788,"lon":0.484728951719465},{"tiploc":"SPHS","crs":"SPU","name":"Staplehurst","lat":51.171465414570896,"lon":0.5504384121380562},{"tiploc":"UPRHLWY","crs":"UHL","name":"Upper Holloway","lat":51.56362937275318,"lon":-0.12951307701878048},{"tiploc":"WELSHPL","crs":"WLP","name":"Welshpool","lat":52.65749264723297,"lon":-3.1398711867938824},{"tiploc":"CSTL","crs":"CAS","name":"Castleton","lat":53.59184499197743,"lon":-2.1782339138977465},{"tiploc":"HMWTHY","crs":"HAM","name":"Hamworthy","lat":50.725190115867015,"lon":-2.019356967921385},{"tiploc":"BRGEND","crs":"BGN","name":"Bridgend","lat":51.50697169668141,"lon":-3.575275629465135},{"tiploc":"BSDN","crs":"BRN","name":"Bearsden","lat":55.91712815260169,"lon":-4.332020074478121},{"tiploc":"WATRINT","crs":"WIT","name":"London Waterloo Intl","lat":0,"lon":0},{"tiploc":"ASPLEYG","crs":"APG","name":"Aspley Guise","lat":52.021235082685294,"lon":-0.6323344794036312},{"tiploc":"CRDFAIR","crs":"XCF","name":"Cardiff Intl Airport (Bus)","lat":0,"lon":0},{"tiploc":"DWBY","crs":"DEW","name":"Dewsbury","lat":53.69212974519418,"lon":-1.633106395979067},{"tiploc":"BLCKS","crs":"BPS","name":"Blackpool South","lat":53.79869910513901,"lon":-3.0489377781044458},{"tiploc":"DONCGPS","crs":"GOZ","name":"Goldthorpe (Bus)","lat":0,"lon":0},{"tiploc":"KEARSLY","crs":"KSL","name":"Kearsley","lat":53.544137513718844,"lon":-2.375119635585013},{"tiploc":"PSLYSTJ","crs":"PYJ","name":"Paisley St James","lat":55.852116526630844,"lon":-4.442442884976519},{"tiploc":"NBARNET","crs":"NBA","name":"New Barnet","lat":51.64857273361682,"lon":-0.1729971535419654},{"tiploc":"WHORNDN","crs":"WHR","name":"West Horndon","lat":51.56794336191934,"lon":0.34064364989630913},{"tiploc":"HELIFLD","crs":"HLD","name":"Hellifield","lat":54.010860832646046,"lon":-2.227844609795384},{"tiploc":"RADYR","crs":"RDR","name":"Radyr","lat":51.51632094542236,"lon":-3.2483527772267173},{"tiploc":"BARLSOP","crs":"BPL","name":"Barlaston Orchard Place (Bus)","lat":0,"lon":0},{"tiploc":"VALLEY","crs":"VAL","name":"Valley","lat":53.281282525450905,"lon":-4.563368726232951},{"tiploc":"BSTD","crs":"BSD","name":"Bearsted","lat":51.2758194354727,"lon":0.5775803820172281},{"tiploc":"FILTNEW","crs":"FIT","name":"Filton Abbey Wood","lat":51.50493727182167,"lon":-2.562430535802052},{"tiploc":"NWTA","crs":"NAY","name":"Newton Aycliffe","lat":54.61370122743897,"lon":-1.5896451944812697},{"tiploc":"BRWCKUT","crs":"BWK","name":"Berwick-upon-Tweed","lat":55.77433620789626,"lon":-2.010973333835964},{"tiploc":"BAROW","crs":"BIF","name":"Barrow-in-Furness","lat":54.11899850021927,"lon":-3.226120294331034},{"tiploc":"DRUMRY","crs":"DMY","name":"Drumry","lat":55.90459070188789,"lon":-4.385472190728753},{"tiploc":"CKHL","crs":"CKH","name":"Corkerhill","lat":55.83749967232931,"lon":-4.334292445152268},{"tiploc":"LNGBKBY","crs":"LBK","name":"Long Buckby","lat":52.29471449804255,"lon":-1.0864668032433034},{"tiploc":"RADGM","crs":"RCF","name":"Radcliffe Metrolink (Bus)","lat":0,"lon":0},{"tiploc":"BGOALAN","crs":"BEA","name":"Bridge of Allan","lat":56.156634130371344,"lon":-3.957228472935605},{"tiploc":"PVNSYBY","crs":"PEB","name":"Pevensey Bay","lat":50.81745871083885,"lon":0.3429065719961726},{"tiploc":"CHORLEY","crs":"CRL","name":"Chorley","lat":53.65253444989078,"lon":-2.6268406289944943},{"tiploc":"ECLR","crs":"ECS","name":"Eccles Road","lat":52.47088194257813,"lon":0.9699172234882515},{"tiploc":"FSHRSGT","crs":"FSG","name":"Fishersgate","lat":50.8342326910073,"lon":-0.21942323071574707},{"tiploc":"YTRHOND","crs":"YSR","name":"Ystrad Rhondda","lat":51.643638136430944,"lon":-3.4666845504363732},{"tiploc":"UNIV","crs":"UNV","name":"University (T & W Metro)","lat":54.9028,"lon":-1.3921},{"tiploc":"WCALDER","crs":"WCL","name":"West Calder","lat":55.853802271402365,"lon":-3.5670167140667135},{"tiploc":"GNWH","crs":"GNW","name":"Greenwich","lat":51.478133167435665,"lon":-0.01333992176301878},{"tiploc":"SMALBRK","crs":"SAB","name":"Smallbrook Junction","lat":50.71110071523092,"lon":-1.1541982760790552},{"tiploc":"BRUNDAL","crs":"BDA","name":"Brundall","lat":52.619481258312916,"lon":1.4392988175019434},{"tiploc":"BRSTAIR","crs":"XPB","name":"Bristol Intl Airport (Bus)","lat":0,"lon":0},{"tiploc":"LNGCROS","crs":"LNG","name":"Longcross","lat":51.38517104254311,"lon":-0.5945699831571213},{"tiploc":"PWTH","crs":"PSW","name":"Polesworth","lat":52.625830520775665,"lon":-1.6105401118960283},{"tiploc":"SPHL","crs":"SPP","name":"Shippea Hill","lat":52.4302114927358,"lon":0.4133451747720132},{"tiploc":"FILEY","crs":"FIL","name":"Filey","lat":54.20985662268332,"lon":-0.29384938800244176},{"tiploc":"HNGT","crs":"HRR","name":"Harrington","lat":54.61348284451141,"lon":-3.5655146031551173},{"tiploc":"MTHRNGH","crs":"MGM","name":"Metheringham","lat":53.13887813395356,"lon":-0.39145313345076926},{"tiploc":"RGLS","crs":"RAV","name":"Ravenglass for Eskdale","lat":54.35570558541832,"lon":-3.4088136347188356},{"tiploc":"OLTON","crs":"OLT","name":"Olton","lat":52.43850975998469,"lon":-1.8043093837423791},{"tiploc":"CHSRD","crs":"CRD","name":"Chester Road","lat":52.53564448650945,"lon":-1.8324792994839945},{"tiploc":"SALHOUS","crs":"SAH","name":"Salhouse","lat":52.67557279813696,"lon":1.391415475190666},{"tiploc":"GLHM","crs":"GIL","name":"Gillingham (Dorset)","lat":51.03403268493215,"lon":-2.2726236998469402},{"tiploc":"GUNTON","crs":"GNT","name":"Gunton","lat":52.86634443339401,"lon":1.3491163455673327},{"tiploc":"FSTR","crs":"FEN","name":"Fenny Stratford","lat":52.000067105382385,"lon":-0.7159973278225868},{"tiploc":"CARBISB","crs":"CBB","name":"Carbis Bay","lat":50.19704715915018,"lon":-5.4632629137903725},{"tiploc":"BSPSHIT","crs":"XLU","name":"Bishops Lydeard (Bus)","lat":0,"lon":0},{"tiploc":"BULWELL","crs":"BLW","name":"Bulwell","lat":52.99969382491634,"lon":-1.1962304761383986},{"tiploc":"FAMR","crs":"FMR","name":"Falmer","lat":50.86212716045091,"lon":-0.08738550084588205},{"tiploc":"WNOTLEY","crs":"WNY","name":"White Notley","lat":51.83890980843886,"lon":0.5958634308177753},{"tiploc":"SLFDORD","crs":"SFD","name":"Salford Central","lat":53.48308168507671,"lon":-2.254840687983262},{"tiploc":"BRGDDIE","crs":"BGI","name":"Bargeddie","lat":55.851290124268594,"lon":-4.073807303983155},{"tiploc":"WOODLEY","crs":"WLY","name":"Woodley","lat":53.429251655854706,"lon":-2.093271550485685},{"tiploc":"BETSYCD","crs":"BYC","name":"Betws-y-Coed","lat":53.0920646818009,"lon":-3.800861272935723},{"tiploc":"WYTH","crs":"WYT","name":"Wythall","lat":52.37993485879952,"lon":-1.8655349326191222},{"tiploc":"KDRMNST","crs":"KID","name":"Kidderminster","lat":52.384480782099516,"lon":-2.2384707238434625},{"tiploc":"SMERTON","crs":"SMO","name":"South Merton","lat":51.4029912575127,"lon":-0.20515747071830376},{"tiploc":"ULCEBY","crs":"ULC","name":"Ulceby","lat":53.61919901630419,"lon":-0.3008267607211642},{"tiploc":"ADWICK","crs":"AWK","name":"Adwick","lat":53.57231908265824,"lon":-1.1803562442158075},{"tiploc":"CORROUR","crs":"CRR","name":"Corrour","lat":56.76021269634052,"lon":-4.690600153436945},{"tiploc":"OVTN","crs":"OVR","name":"Overton","lat":51.25429201062932,"lon":-1.2592676033460328},{"tiploc":"RTFD","crs":"RET","name":"Retford","lat":53.31515227974162,"lon":-0.947884024701815},{"tiploc":"SOTNTQ","crs":"STQ","name":"Southampton Town Quay (Bus)","lat":50.8951507027228,"lon":-1.4058303315722478},{"tiploc":"BRDS","crs":"BBS","name":"Bordesley","lat":52.47187133321373,"lon":-1.8777686447696424},{"tiploc":"GOVS","crs":"GOS","name":"Grange-over-Sands","lat":54.195720441645335,"lon":-2.902747274264969},{"tiploc":"MAYBOLE","crs":"MAY","name":"Maybole","lat":55.354734808291454,"lon":-4.685288657246588},{"tiploc":"YTMNSTR","crs":"YET","name":"Yetminster","lat":50.89576272751939,"lon":-2.573755633127097},{"tiploc":"LEIGHK","crs":"LIH","name":"Leigh (Kent)","lat":51.193898925872205,"lon":0.21049492538885142},{"tiploc":"SAMPCRT","crs":"SMC","name":"Sampford Courtenay","lat":50.770098437294195,"lon":-3.948890978995091},{"tiploc":"SLOUGH","crs":"SLO","name":"Slough","lat":51.51187861986129,"lon":-0.5915104151514504},{"tiploc":"LCEILOB","crs":"LHE","name":"Loch Eil Outward Bound","lat":56.85526676455846,"lon":-5.191576470389345},{"tiploc":"WBRMPTN","crs":"WBP","name":"West Brompton","lat":51.4870595019825,"lon":-0.19559263318827042},{"tiploc":"NRBITON","crs":"NBT","name":"Norbiton","lat":51.41235581639422,"lon":-0.28402502143145947},{"tiploc":"KVTNPK","crs":"KVP","name":"Kiveton Park","lat":53.336713348164245,"lon":-1.2398445359901393},{"tiploc":"PANNAL","crs":"PNL","name":"Pannal","lat":53.95832261310232,"lon":-1.533466981334974},{"tiploc":"WANTMPL","crs":"XDC","name":"Wantage (Bus)","lat":0,"lon":0},{"tiploc":"MELS","crs":"MEO","name":"Meols","lat":53.399437788562416,"lon":-3.154269142590225},{"tiploc":"SEERGRN","crs":"SRG","name":"Seer Green","lat":51.60984297706446,"lon":-0.607818519867759},{"tiploc":"CRTN","crs":"CTO","name":"Carlton","lat":52.965085588137555,"lon":-1.0786549560253254},{"tiploc":"GLYNDE","crs":"GLY","name":"Glynde","lat":50.85917013389891,"lon":0.07007729378930234},{"tiploc":"MFLDWSE","crs":"MSW","name":"Mansfield Woodhouse","lat":53.163561318802515,"lon":-1.2018485119695417},{"tiploc":"IBMM","crs":"IBM","name":"IBM","lat":55.92944573172912,"lon":-4.827239930392862},{"tiploc":"BRRHL","crs":"BRL","name":"Barrhill","lat":55.097002950822606,"lon":-4.781780960824862},{"tiploc":"TRDYRHW","crs":"TRD","name":"Troed-y-rhiw","lat":51.71242365812675,"lon":-3.3467439510344223},{"tiploc":"MEOLSCP","crs":"MEC","name":"Meols Cop","lat":53.64627016995213,"lon":-2.9758037394276884},{"tiploc":"BURY","crs":"BUR","name":"Bury Metrolink (Bus)","lat":0,"lon":0},{"tiploc":"POLSBDG","crs":"POL","name":"Polsloe Bridge","lat":50.73127895855007,"lon":-3.5019471070107016},{"tiploc":"TONPNTR","crs":"TPN","name":"Ton Pentre","lat":51.64779889604921,"lon":-3.4861872909517815},{"tiploc":"BCKY","crs":"BCK","name":"Buckley","lat":53.16303412389489,"lon":-3.0559256412443463},{"tiploc":"CHRNGXG","crs":"CHC","name":"Charing Cross (Glasgow)","lat":55.86468053392175,"lon":-4.269819900019294},{"tiploc":"STFD","crs":"SRA","name":"Stratford (London)","lat":51.541893184624854,"lon":-0.0033967355799776923},{"tiploc":"WWRTHNG","crs":"WWO","name":"West Worthing","lat":50.81835207999152,"lon":-0.392985188238169},{"tiploc":"ROHL","crs":"RSH","name":"Rose Hill Marple","lat":53.396221724767685,"lon":-2.0765215016483203},{"tiploc":"SMARGRT","crs":"SMT","name":"St Margarets (Hertfordshire)","lat":51.78783865884637,"lon":0.0012691377785753587},{"tiploc":"WNMHILL","crs":"WIH","name":"Winchmore Hill","lat":51.63394021674655,"lon":-0.10090023464919244},{"tiploc":"CRSTRS","crs":"CRS","name":"Carstairs","lat":55.691045156800065,"lon":-3.6684732102532243},{"tiploc":"KNGX","crs":"KGX","name":"London Kings Cross","lat":51.530881477704284,"lon":-0.12292598600691025},{"tiploc":"ULLAPOL","crs":"ULP","name":"Ullapool (Bus)","lat":0,"lon":0},{"tiploc":"BCSTBUS","crs":"XEZ","name":"Bicester (Bus)","lat":0,"lon":0},{"tiploc":"LIMHSE","crs":"LHS","name":"Limehouse","lat":51.51253481634216,"lon":-0.039802861988681146},{"tiploc":"THLB","crs":"THB","name":"Thornliebank","lat":55.8110982456796,"lon":-4.311707064984751},{"tiploc":"DRTN","crs":"DRT","name":"Darton","lat":53.58836610355137,"lon":-1.531657433734141},{"tiploc":"LUDO","crs":"LLD","name":"Llandudno","lat":53.3209147016927,"lon":-3.827001105907067},{"tiploc":"NAIRN","crs":"NRN","name":"Nairn","lat":57.58024507758819,"lon":-3.8720000322654813},{"tiploc":"KNGW","crs":"KGE","name":"Kingsknowe","lat":55.91881242389054,"lon":-3.264966147758671},{"tiploc":"THABBEY","crs":"TNA","name":"Thornton Abbey","lat":53.654300809612515,"lon":-0.323021480361524},{"tiploc":"LRDGFD","crs":"LRD","name":"London Road (Guildford)","lat":51.24064790454977,"lon":-0.5650689527735233},{"tiploc":"BALHAM","crs":"BAL","name":"Balham","lat":51.44322301298383,"lon":-0.15242448914119103},{"tiploc":"CALAFGV","crs":"FRH","name":"Calais Frethun","lat":50.9015,"lon":1.81152},{"tiploc":"WRGT","crs":"WAC","name":"Warrington Central","lat":53.3918144893738,"lon":-2.5931682922138877},{"tiploc":"GTMLVRN","crs":"GMV","name":"Great Malvern","lat":52.109196969222225,"lon":-2.318270808130817},{"tiploc":"MRTECTR","crs":"XEK","name":"Moretonhampstead (Bus)","lat":0,"lon":0},{"tiploc":"MKIN","crs":"MNC","name":"Markinch","lat":56.20101453484031,"lon":-3.1307868475353415},{"tiploc":"WORSTED","crs":"WRT","name":"Worstead","lat":52.77742399055861,"lon":1.404081230149746},{"tiploc":"EBWVTN","crs":"EBB","name":"Ebbw Vale Town","lat":51.77668614916963,"lon":-3.2025768816539606},{"tiploc":"MELDRTH","crs":"MEL","name":"Meldreth","lat":52.09071487803867,"lon":0.008941215037779808},{"tiploc":"BLYBDGE","crs":"BYB","name":"Blythe Bridge","lat":52.96814062989019,"lon":-2.0669611116633297},{"tiploc":"LOSTCKP","crs":"LOT","name":"Lostock","lat":53.57292553181959,"lon":-2.4942660807285746},{"tiploc":"CHLTNHM","crs":"CNM","name":"Cheltenham Spa","lat":51.897395602561794,"lon":-2.0996199573135192},{"tiploc":"FRZNGHL","crs":"FZH","name":"Frizinghall","lat":53.82036838324465,"lon":-1.769001070885596},{"tiploc":"DLTNTVA","crs":"TVA","name":"Tees Valley Airport (Bus)","lat":0,"lon":0},{"tiploc":"LANDUDJ","crs":"LLJ","name":"Llandudno Junction","lat":53.28394207597431,"lon":-3.8091017849213955},{"tiploc":"UPMNSP6","crs":"UPM","name":"Upminster","lat":51.559106197898565,"lon":0.25088392480396865},{"tiploc":"DMBRTNC","crs":"DBC","name":"Dumbarton Central","lat":55.94665365962121,"lon":-4.566920512378465},{"tiploc":"STEWRTN","crs":"STT","name":"Stewarton","lat":55.68215252093108,"lon":-4.518057462303498},{"tiploc":"DMBRTNE","crs":"DBE","name":"Dumbarton East","lat":55.94224567102843,"lon":-4.554136639676801},{"tiploc":"TYSL","crs":"TYS","name":"Tyseley","lat":52.45411488409697,"lon":-1.8391160057389504},{"tiploc":"DINASP","crs":"DNS","name":"Dinas Powys","lat":51.431662471639015,"lon":-3.218351511495117},{"tiploc":"DUNDETB","crs":"DEE","name":"Dundee","lat":56.45648516162369,"lon":-2.9712045352214917},{"tiploc":"LADYBNK","crs":"LDY","name":"Ladybank","lat":56.27378066579779,"lon":-3.1222751375888422},{"tiploc":"PMBRYBP","crs":"PBY","name":"Pembrey & Burry Port","lat":51.68352561101079,"lon":-4.247841053420649},{"tiploc":"GRMSBYD","crs":"GMD","name":"Grimsby Docks","lat":53.57431968975079,"lon":-0.0756172819542954},{"tiploc":"KEIGHLY","crs":"KEI","name":"Keighley","lat":53.86796129614441,"lon":-1.9016494845888396},{"tiploc":"BSSN","crs":"BIP","name":"Bishopstone","lat":50.78014159961512,"lon":0.08275692749959099},{"tiploc":"SLEHOPE","crs":"SFO","name":"Stanford-le-Hope","lat":51.51436162964232,"lon":0.4230357516493626},{"tiploc":"BRFRY","crs":"BYF","name":"Broughty Ferry","lat":56.46715948919992,"lon":-2.8731522873335},{"tiploc":"MRYHILL","crs":"MYH","name":"Maryhill","lat":55.89762955523126,"lon":-4.300745023646487},{"tiploc":"DREMJ","crs":"DRM","name":"Drem","lat":56.00512165275773,"lon":-2.7860478119682632},{"tiploc":"MINEBAN","crs":"XBW","name":"Minehead Bancks Street (Bus)","lat":0,"lon":0},{"tiploc":"NBRWGE","crs":"NBE","name":"Newbridge","lat":51.66581369411219,"lon":-3.1428851095734682},{"tiploc":"WNSFD","crs":"WSF","name":"Winsford","lat":53.19050970454007,"lon":-2.4945993149814876},{"tiploc":"TDITTON","crs":"THD","name":"Thames Ditton","lat":51.38909518483323,"lon":-0.33915217599598757},{"tiploc":"HAMERTN","crs":"HMM","name":"Hammerton","lat":53.99632822513706,"lon":-1.2840955874829147},{"tiploc":"HORLEY","crs":"HOR","name":"Horley","lat":51.16877344760636,"lon":-0.16105357729562952},{"tiploc":"BLTCHLY","crs":"BLY","name":"Bletchley","lat":51.99533270082938,"lon":-0.7363204707714394},{"tiploc":"ARUNDEL","crs":"ARU","name":"Arundel","lat":50.84821300398625,"lon":-0.546174276346412},{"tiploc":"FRBRMN","crs":"FNB","name":"Farnborough (Main)","lat":51.296603575677665,"lon":-0.7557256871661012},{"tiploc":"CAERGWL","crs":"CGW","name":"Caergwrle","lat":53.10786147620754,"lon":-3.032912732311197},{"tiploc":"MHERON","crs":"MAO","name":"Martins Heron","lat":51.40740987543696,"lon":-0.7243966507152414},{"tiploc":"OXTEDBY","crs":"OXT","name":"Oxted","lat":51.25790633727494,"lon":-0.004833575342926261},{"tiploc":"PTRCRFT","crs":"PAT","name":"Patricroft","lat":53.48477573466068,"lon":-2.358244632942695},{"tiploc":"GRMSBYT","crs":"GMB","name":"Grimsby Town","lat":53.56342662469799,"lon":-0.08698394637622033},{"tiploc":"TURKYST","crs":"TUR","name":"Turkey Street","lat":51.672626214705346,"lon":-0.04721663292057485},{"tiploc":"WLLSPRI","crs":"XDH","name":"Wells (Bus)","lat":0,"lon":0},{"tiploc":"MIDSTHL","crs":"XBR","name":"Midsomer Norton (Bus)","lat":0,"lon":0},{"tiploc":"TAFFSWL","crs":"TAF","name":"Taffs Well","lat":51.54080261794074,"lon":-3.262937841979913},{"tiploc":"LUTOAPY","crs":"LTN","name":"Luton Airport Parkway","lat":51.872435754807455,"lon":-0.3958810013032624},{"tiploc":"BATHBUS","crs":"XDO","name":"Bath Bus Station","lat":0,"lon":0},{"tiploc":"CHLMSFD","crs":"CHM","name":"Chelmsford","lat":51.736370675488565,"lon":0.46857210000913924},{"tiploc":"FULWELL","crs":"FLW","name":"Fulwell","lat":51.43393328749854,"lon":-0.3494675954480056},{"tiploc":"HRTW","crs":"HTW","name":"Hartwood","lat":55.81147954079327,"lon":-3.839321832118059},{"tiploc":"PENZNCE","crs":"PNZ","name":"Penzance","lat":50.12167154676524,"lon":-5.532565133194136},{"tiploc":"WDND","crs":"WDE","name":"Wood End","lat":52.34367843630911,"lon":-1.8442137067976367},{"tiploc":"GLNCNWY","crs":"GCW","name":"Glan Conwy","lat":53.26741971201112,"lon":-3.797727336184678},{"tiploc":"HOVE","crs":"HOV","name":"Hove","lat":50.83521447702881,"lon":-0.17068739192879606},{"tiploc":"TREHAFD","crs":"TRH","name":"Trehafod","lat":51.61014893532782,"lon":-3.3809745096114905},{"tiploc":"WHLE","crs":"WTE","name":"Whitlocks End","lat":52.39183003510532,"lon":-1.8515388432401703},{"tiploc":"DALS","crs":"DLJ","name":"Dalston Junction","lat":51.54611376388109,"lon":-0.07513756624735955},{"tiploc":"VRGNWTR","crs":"VIR","name":"Virginia Water","lat":51.4018003713731,"lon":-0.5621738254365595},{"tiploc":"ASPTRIA","crs":"ASP","name":"Aspatria","lat":54.75895457618836,"lon":-3.3318735575574396},{"tiploc":"LNGP","crs":"LPT","name":"Longport","lat":53.04188009326136,"lon":-2.216447844552954},{"tiploc":"LEWES","crs":"LWS","name":"Lewes","lat":50.870630110043486,"lon":0.01133052139248327},{"tiploc":"ELWD","crs":"EWD","name":"Earlswood (West Midlands)","lat":52.366579482102004,"lon":-1.8611694937902326},{"tiploc":"WANBRO","crs":"WAN","name":"Wanborough","lat":51.24452148390875,"lon":-0.6675877675716477},{"tiploc":"BTCHWTH","crs":"BTO","name":"Betchworth","lat":51.24818735936198,"lon":-0.26697300601745594},{"tiploc":"FLINT","crs":"FLN","name":"Flint","lat":53.24952242503591,"lon":-3.1329930794723206},{"tiploc":"BKNELL","crs":"BUK","name":"Bucknell","lat":52.35737721530825,"lon":-2.9473778067564362},{"tiploc":"LLGMMRW","crs":"LLM","name":"Llangammarch","lat":52.11429662463637,"lon":-3.5548165204289437},{"tiploc":"CONGLTN","crs":"CNG","name":"Congleton","lat":53.15785265238798,"lon":-2.1925799855316686},{"tiploc":"WRMNSTR","crs":"WMN","name":"Warminster","lat":51.20677486987703,"lon":-2.176734034923989},{"tiploc":"MRTLKE","crs":"MTL","name":"Mortlake","lat":51.46808498823016,"lon":-0.2671056424193278},{"tiploc":"BRDGWTR","crs":"BWT","name":"Bridgwater","lat":51.12785457904066,"lon":-2.9904054460695226},{"tiploc":"BARLSTN","crs":"BRT","name":"Barlaston","lat":52.942870519384506,"lon":-2.168111108173998},{"tiploc":"MANRPK","crs":"MNP","name":"Manor Park","lat":51.55247476457618,"lon":0.046341541016394754},{"tiploc":"ELGH","crs":"ESL","name":"Eastleigh","lat":50.969248424712156,"lon":-1.3500844830684007},{"tiploc":"SHOLING","crs":"SHO","name":"Sholing","lat":50.89675187314307,"lon":-1.3649149688340512},{"tiploc":"EGTON","crs":"EGT","name":"Egton","lat":54.43747979851764,"lon":-0.7614649286280512},{"tiploc":"HMPSTDH","crs":"HDH","name":"Hampstead Heath","lat":51.55520832771318,"lon":-0.16570541675743666},{"tiploc":"WRCSTRP","crs":"WCP","name":"Worcester Park","lat":51.38125071015674,"lon":-0.2451673022213078},{"tiploc":"DLTNRIM","crs":"RMK","name":"Richmond, Nth Yorks (Bus)","lat":0,"lon":0},{"tiploc":"ISLIP","crs":"ISP","name":"Islip","lat":51.82575154811538,"lon":-1.23818167009187},{"tiploc":"THOPBAY","crs":"TPB","name":"Thorpe Bay","lat":51.53756837037452,"lon":0.7617279575005359},{"tiploc":"CROUCHH","crs":"CRH","name":"Crouch Hill","lat":51.57130001860291,"lon":-0.11714881368883445},{"tiploc":"TUNWELL","crs":"TBW","name":"Tunbridge Wells","lat":51.130231988476794,"lon":0.2628103116817585},{"tiploc":"GLNEGLS","crs":"GLE","name":"Gleneagles","lat":56.27484862745999,"lon":-3.7311679052629314},{"tiploc":"KSTP","crs":"KSW","name":"Kirkby Stephen","lat":54.45485543206214,"lon":-2.368596587917768},{"tiploc":"ALLENSW","crs":"ALW","name":"Allens West","lat":54.52462118835162,"lon":-1.3611167227003185},{"tiploc":"DINASR","crs":"DMG","name":"Dinas Rhondda","lat":51.617832180295466,"lon":-3.437541043527335},{"tiploc":"BRSR","crs":"BSR","name":"Broadstairs","lat":51.360672427214915,"lon":1.4335605581507305},{"tiploc":"HOLSLIB","crs":"XEE","name":"Holsworthy (Bus)","lat":0,"lon":0},{"tiploc":"WEMM","crs":"WEM","name":"Wem","lat":52.85640771296446,"lon":-2.7180168678882506},{"tiploc":"CHSSN","crs":"CSN","name":"Chessington North","lat":51.36403922622502,"lon":-0.3006991277268866},{"tiploc":"HRLNGRD","crs":"HRD","name":"Harling Road","lat":52.45368783250652,"lon":0.9091422879025278},{"tiploc":"ARDLUI","crs":"AUI","name":"Ardlui","lat":56.30196545330362,"lon":-4.7216573210900314},{"tiploc":"ERIDGE","crs":"ERI","name":"Eridge","lat":51.0889636957593,"lon":0.20143172133156884},{"tiploc":"APDR","crs":"APD","name":"Appledore (Kent)","lat":51.03323518245118,"lon":0.8163415505736319},{"tiploc":"DEIGHTN","crs":"DHN","name":"Deighton","lat":53.66848097277538,"lon":-1.7518964097527505},{"tiploc":"GLGN","crs":"GLG","name":"Glengarnock","lat":55.73888619271206,"lon":-4.67450160251453},{"tiploc":"MLHL","crs":"MLH","name":"Mill Hill (Lancashire)","lat":53.735456357204384,"lon":-2.501735311170755},{"tiploc":"WARWPWY","crs":"WRP","name":"Warwick Parkway","lat":52.28610160603858,"lon":-1.6120578527593907},{"tiploc":"GOLFSTR","crs":"GOF","name":"Golf Street","lat":56.497793039126464,"lon":-2.7195435006412327},{"tiploc":"CHTSEY","crs":"CHY","name":"Chertsey","lat":51.38706705202925,"lon":-0.5093166064676423},{"tiploc":"WOKING","crs":"WOK","name":"Woking","lat":51.318467546091746,"lon":-0.5569596795014521},{"tiploc":"LLNLLI","crs":"LLE","name":"Llanelli","lat":51.67386476515968,"lon":-4.16130341182469},{"tiploc":"MARYLBN","crs":"MYB","name":"London Marylebone","lat":51.522522027884825,"lon":-0.16291089985291704},{"tiploc":"WLNTNON","crs":"WIL","name":"Willington","lat":52.85364317173123,"lon":-1.5633605394187644},{"tiploc":"WLSDJHL","crs":"WIJ","name":"Willesden Junction","lat":51.5324947720042,"lon":-0.24454788456345455},{"tiploc":"BROOME","crs":"BME","name":"Broome","lat":52.4227698823911,"lon":-2.8852074714326923},{"tiploc":"CMBLEY","crs":"CAM","name":"Camberley","lat":51.336325837129394,"lon":-0.7442716833707637},{"tiploc":"SHRTLND","crs":"SRT","name":"Shortlands","lat":51.40579885288157,"lon":0.0017840279047206154},{"tiploc":"SOUTHPT","crs":"SOP","name":"Southport","lat":53.64651749479831,"lon":-3.0024347131693565},{"tiploc":"TANY","crs":"TYB","name":"Tan-y-Bwlch  (Bus)","lat":52.954368960013916,"lon":-4.0115152823743},{"tiploc":"ENFC","crs":"ENC","name":"Enfield Chase","lat":51.65325222216049,"lon":-0.09069636549785143},{"tiploc":"RYDCATS","crs":"RYP","name":"Ryde Pier Head","lat":50.73918327908035,"lon":-1.1601266594011788},{"tiploc":"BEBNGTN","crs":"BEB","name":"Bebington","lat":53.35765219769061,"lon":-3.0036346408225763},{"tiploc":"LWBY","crs":"LGW","name":"Langwathby","lat":54.69435586371646,"lon":-2.663683672794805},{"tiploc":"WINCNEW","crs":"WSE","name":"Winchelsea","lat":50.933763855056114,"lon":0.7022616615985646},{"tiploc":"BLFR","crs":"BFR","name":"London Blackfriars","lat":51.511807863865975,"lon":-0.10333206712443484},{"tiploc":"HOLINWD","crs":"HOD","name":"Hollinwood","lat":0,"lon":0},{"tiploc":"SCSCLDR","crs":"SCT","name":"Scotscalder","lat":58.4829906214691,"lon":-3.552049792086418},{"tiploc":"RUGBY","crs":"RUG","name":"Rugby","lat":52.37909277406321,"lon":-1.2504844056581146},{"tiploc":"SELHRST","crs":"SRS","name":"Selhurst","lat":51.39192556811119,"lon":-0.0882999731671392},{"tiploc":"MLFORLP","crs":"MLF","name":"Milford (Surrey)","lat":51.16331747107855,"lon":-0.6369483542335653},{"tiploc":"PNALLY","crs":"PNA","name":"Penally","lat":51.65891738766915,"lon":-4.722054956437404},{"tiploc":"STURRY","crs":"STU","name":"Sturry","lat":51.301066862213275,"lon":1.1222552816532474},{"tiploc":"TWDBANK","crs":"TWB","name":"Tweedbank","lat":55.60574042621791,"lon":-2.7595311314552293},{"tiploc":"YSTRADM","crs":"YSM","name":"Ystrad Mynach","lat":51.6409325818712,"lon":-3.241295319664947},{"tiploc":"BHAMJEW","crs":"JEQ","name":"Jewellery Quarter","lat":52.48943298557931,"lon":-1.9132127550882023},{"tiploc":"PWCK","crs":"PTW","name":"Prestwick Town","lat":55.50169620707306,"lon":-4.615156230936393},{"tiploc":"EASTBRK","crs":"EBK","name":"Eastbrook","lat":51.43763362127064,"lon":-3.206137387122615},{"tiploc":"PNRHCBR","crs":"PER","name":"Penrhiwceiber","lat":51.66992041786625,"lon":-3.3599436449947055},{"tiploc":"CWMBRAN","crs":"CWM","name":"Cwmbran","lat":51.65658419128251,"lon":-3.0162033039507308},{"tiploc":"INVGWRE","crs":"ING","name":"Invergowrie","lat":56.456472528739745,"lon":-3.0573977003418316},{"tiploc":"REDCBSC","crs":"RBS","name":"British Steel Redcar","lat":54.60988796718284,"lon":-1.112661204774171},{"tiploc":"HLGN","crs":"HLG","name":"Hall Green","lat":52.4369076910224,"lon":-1.8456508656424881},{"tiploc":"LVNSTNN","crs":"LSN","name":"Livingston North","lat":55.90138256910659,"lon":-3.544350818643811},{"tiploc":"ROMILEY","crs":"RML","name":"Romiley","lat":53.41401013760736,"lon":-2.0893264853815525},{"tiploc":"BRNMONC","crs":"BUU","name":"Burnham-on-Crouch","lat":51.633655747389525,"lon":0.8140278287738434},{"tiploc":"BRNSTLT","crs":"ZBC","name":"Barons Court Underground","lat":51.49031,"lon":-0.2134},{"tiploc":"CHAPLTN","crs":"CPN","name":"Chapleton","lat":51.016533309252374,"lon":-4.024721812383304},{"tiploc":"ROGART","crs":"ROG","name":"Rogart","lat":57.988711987913064,"lon":-4.1581849330518015},{"tiploc":"LVNSTNS","crs":"LVG","name":"Livingston South","lat":55.871691930359184,"lon":-3.5015691140620104},{"tiploc":"HTCP","crs":"HTC","name":"Heaton Chapel","lat":53.42555829026513,"lon":-2.1790415060301433},{"tiploc":"KNYMPTN","crs":"KGN","name":"Kings Nympton","lat":50.93607219373755,"lon":-3.905410632933094},{"tiploc":"LCHLCHR","crs":"LCC","name":"Lochluichart","lat":57.621756226518144,"lon":-4.809048773004652},{"tiploc":"DUNCRAG","crs":"DCG","name":"Duncraig","lat":57.33700072249785,"lon":-5.637130566251576},{"tiploc":"TODMRDN","crs":"TOD","name":"Todmorden","lat":53.71381610007096,"lon":-2.099659168967867},{"tiploc":"WEALING","crs":"WEA","name":"West Ealing","lat":51.513503680344456,"lon":-0.32013327441965683},{"tiploc":"SKENTON","crs":"SOK","name":"South Kenton","lat":51.570212143736754,"lon":-0.308462437181778},{"tiploc":"SLATEFD","crs":"SLA","name":"Slateford","lat":55.926687214026124,"lon":-3.2434565047305104},{"tiploc":"HLNSBRC","crs":"HLC","name":"Helensburgh Central","lat":56.00420690277842,"lon":-4.732757753398864},{"tiploc":"LBGHJN","crs":"LGJ","name":"Loughborough Junction","lat":51.46629577731621,"lon":-0.10218207794252922},{"tiploc":"PWCH","crs":"PWC","name":"Prestwich Metrolink (Bus)","lat":0,"lon":0},{"tiploc":"HALW","crs":"HED","name":"Halewood","lat":53.36447767163343,"lon":-2.8301338990336697},{"tiploc":"ATHRSTN","crs":"ATH","name":"Atherstone","lat":52.578969537813265,"lon":-1.5528113308937872},{"tiploc":"EYNSFD","crs":"EYN","name":"Eynsford","lat":51.36271841950398,"lon":0.20439312926986475},{"tiploc":"STOKEOT","crs":"SOT","name":"Stoke-on-Trent","lat":53.007978436382714,"lon":-2.1809873296066558},{"tiploc":"CLDRCRX","crs":"CAC","name":"Caldercruix","lat":55.8879418580705,"lon":-3.8877110444554175},{"tiploc":"STRHCOM","crs":"SRC","name":"Streatham Common","lat":51.418728017544645,"lon":-0.13600984942674885},{"tiploc":"WISBBUS","crs":"WIS","name":"Wisbech Horsefair (Bus)","lat":0,"lon":0},{"tiploc":"MSTN","crs":"MSO","name":"Moston","lat":53.52341838704696,"lon":-2.1710228330004577},{"tiploc":"BLIEURD","crs":"BEU","name":"Beaulieu Road","lat":50.8550468574776,"lon":-1.5047494907054941},{"tiploc":"SOTDWD","crs":"XSK","name":"Southampton Western Docks","lat":0,"lon":0},{"tiploc":"BARKGLT","crs":"ZBK","name":"Barking Underground","lat":51.5393,"lon":0.0817},{"tiploc":"BRWHINS","crs":"BNR","name":"Brockley Whins (T & W Metro)","lat":54.95954259529612,"lon":-1.461353275208675},{"tiploc":"FALSWTH","crs":"FLS","name":"Failsworth","lat":0,"lon":0},{"tiploc":"LSTH","crs":"LOH","name":"Lostock Hall","lat":53.724242814434305,"lon":-2.68748331991519},{"tiploc":"MLHB","crs":"MIL","name":"Mill Hill Broadway","lat":51.6130909542498,"lon":-0.24923971283812835},{"tiploc":"OLHL","crs":"OHL","name":"Old Hill","lat":52.47093183717112,"lon":-2.0561906629362308},{"tiploc":"BEDYN","crs":"BDW","name":"Bedwyn","lat":51.379638316572034,"lon":-1.598786116903275},{"tiploc":"PRTSMTA","crs":"PMA","name":"Portsmouth Arms","lat":50.95700018049761,"lon":-3.950579400452369},{"tiploc":"WLTWCEN","crs":"WHC","name":"Walthamstow Central","lat":51.58291686864411,"lon":-0.019815023124161005},{"tiploc":"KCLD","crs":"KDY","name":"Kirkcaldy","lat":56.11205715123655,"lon":-3.1670283174746188},{"tiploc":"FAZKRLY","crs":"FAZ","name":"Fazakerley","lat":53.469083127844634,"lon":-2.936723192447611},{"tiploc":"GLGC","crs":"GLC","name":"Glasgow Central","lat":55.859754790338684,"lon":-4.257643235656933},{"tiploc":"HLNSBRU","crs":"HLU","name":"Helensburgh Upper","lat":56.01236201340869,"lon":-4.729803949412385},{"tiploc":"LSTG","crs":"LTG","name":"Lostock Gralam","lat":53.26766304277784,"lon":-2.4652029707315037},{"tiploc":"DALSKLD","crs":"DLK","name":"Dalston Kingsland","lat":51.54814632472448,"lon":-0.07570082140922381},{"tiploc":"MORETON","crs":"MTN","name":"Moreton (Dorset)","lat":50.70102899478129,"lon":-2.3134496593317087},{"tiploc":"EBOLDON","crs":"EBL","name":"East Boldon (T & W Metro)","lat":54.94641358659324,"lon":-1.4203139194037617},{"tiploc":"CYNGHRD","crs":"CYN","name":"Cynghordy","lat":52.051496006399745,"lon":-3.7482105026070274},{"tiploc":"CHHL","crs":"CHT","name":"Chathill","lat":55.536731685417955,"lon":-1.7063751469664243},{"tiploc":"HOPTONH","crs":"HPT","name":"Hopton Heath","lat":52.3914141501688,"lon":-2.9120595833540146},{"tiploc":"ALLOA","crs":"ALO","name":"Alloa","lat":56.11778819219982,"lon":-3.790055586305255},{"tiploc":"PSEA","crs":"PMS","name":"Portsmouth & Southsea","lat":50.79849359441136,"lon":-1.0909110478613053},{"tiploc":"CONNELF","crs":"CON","name":"Connel Ferry","lat":56.45235146275262,"lon":-5.3854408423729705},{"tiploc":"WINDSEC","crs":"WNC","name":"Windsor & Eton Central","lat":51.48326612701557,"lon":-0.6103799247307021},{"tiploc":"BTHNLGR","crs":"BET","name":"Bethnal Green","lat":51.523915395974285,"lon":-0.05956804087052071},{"tiploc":"STANMFC","crs":"SST","name":"Stansted Mountfitchet","lat":51.901436440474555,"lon":0.19978087452933835},{"tiploc":"ESHER","crs":"ESH","name":"Esher","lat":51.37988927380555,"lon":-0.3533378261942159},{"tiploc":"WINCSEA","crs":"WSE","name":"Winchelsea","lat":50.933763855056114,"lon":0.7022616615985646},{"tiploc":"LYNECMP","crs":"XBD","name":"Lyneham Camp (Bus)","lat":0,"lon":0},{"tiploc":"CHSSS","crs":"CSS","name":"Chessington South","lat":51.356548476594966,"lon":-0.3081575636500277},{"tiploc":"CODSALL","crs":"CSL","name":"Codsall","lat":52.62728638947704,"lon":-2.2017628137333145},{"tiploc":"CORPACH","crs":"CPA","name":"Corpach","lat":56.84282591316124,"lon":-5.1219564407639675},{"tiploc":"HAGFOLD","crs":"HGF","name":"Hag Fold","lat":53.53385055940274,"lon":-2.4948215406378895},{"tiploc":"STPLTNR","crs":"SRD","name":"Stapleton Road","lat":51.46750506952694,"lon":-2.5662168284696207},{"tiploc":"UPMNSTR","crs":"UPM","name":"Upminster","lat":51.559106197898565,"lon":0.25088392480396865},{"tiploc":"BESJOHN","crs":"BSJ","name":"Bedford St Johns","lat":52.129476371735144,"lon":-0.4675010105918842},{"tiploc":"ROYBDGE","crs":"RYB","name":"Roy Bridge","lat":56.888363179145095,"lon":-4.8372420520421215},{"tiploc":"DUMPTNP","crs":"DMP","name":"Dumpton Park","lat":51.345697372422094,"lon":1.4258186362823204},{"tiploc":"LMTNTWN","crs":"LYT","name":"Lymington Town","lat":50.76091046687727,"lon":-1.537161991001282},{"tiploc":"WHALLEY","crs":"WHE","name":"Whalley","lat":53.824015495373914,"lon":-2.4122529909136268},{"tiploc":"HACKNYC","crs":"HKC","name":"Hackney Central","lat":51.54710307555882,"lon":-0.056057609636737116},{"tiploc":"HYDEC","crs":"HYC","name":"Hyde Central","lat":53.451881717823916,"lon":-2.085250132298221},{"tiploc":"PEWSEY","crs":"PEW","name":"Pewsey","lat":51.342191393392405,"lon":-1.7706752147335356},{"tiploc":"ASHONUL","crs":"AHN","name":"Ashton-under-Lyne","lat":53.4912712733896,"lon":-2.094312273592711},{"tiploc":"PERANWL","crs":"PRW","name":"Perranwell","lat":50.21657711219791,"lon":-5.11206911064482},{"tiploc":"CRCK","crs":"CKL","name":"Corkickle","lat":54.54167767053412,"lon":-3.5821639937524865},{"tiploc":"DODWRTH","crs":"DOD","name":"Dodworth","lat":53.54432310790814,"lon":-1.531690739537414},{"tiploc":"WHAILES","crs":"WTA","name":"Wester Hailes","lat":55.9143167563865,"lon":-3.2843391469486276},{"tiploc":"PELAWTW","crs":"PAW","name":"Pelaw (T & W Metro)","lat":54.9527,"lon":-1.5414},{"tiploc":"WDBDGBS","crs":"WBE","name":"Wadebridge Bus Station","lat":0,"lon":0},{"tiploc":"ALBNYPK","crs":"AYP","name":"Albany Park","lat":51.43545074209875,"lon":0.12573707258458985},{"tiploc":"NCRAGHA","crs":"NEW","name":"Newcraighall","lat":55.93312038970162,"lon":-3.090843369712456},{"tiploc":"OREE","crs":"ORE","name":"Ore","lat":50.86694650567125,"lon":0.5915678864183034},{"tiploc":"CSBY","crs":"CTB","name":"Castlebay, Barra (Bus)","lat":0,"lon":0},{"tiploc":"HALSWTH","crs":"HAS","name":"Halesworth","lat":52.34681424161992,"lon":1.5056673864896757},{"tiploc":"KEWGRDN","crs":"KWG","name":"Kew Gardens","lat":51.477071505387414,"lon":-0.2850535827780554},{"tiploc":"SINFINN","crs":"SIR","name":"Private Charter","lat":0,"lon":0},{"tiploc":"EXHIBTC","crs":"EXG","name":"Exhibition Centre","lat":55.86154970103413,"lon":-4.283588682142815},{"tiploc":"HILLSID","crs":"HIL","name":"Hillside","lat":53.62210445117547,"lon":-3.0247163439543088},{"tiploc":"MARPLE","crs":"MPL","name":"Marple","lat":53.40069088158731,"lon":-2.0572633095536417},{"tiploc":"SNODLND","crs":"SDA","name":"Snodland","lat":51.33022872231719,"lon":0.44824123983778225},{"tiploc":"BOOKHAM","crs":"BKA","name":"Bookham","lat":51.288736829389016,"lon":-0.38402067131111095},{"tiploc":"BRNGTN","crs":"BNT","name":"Brinnington","lat":53.432114847602904,"lon":-2.1351198799067452},{"tiploc":"HACKNYW","crs":"HKW","name":"Hackney Wick","lat":51.54340859032718,"lon":-0.02491985130768602},{"tiploc":"ACRNGTN","crs":"ACR","name":"Accrington","lat":53.75296957669655,"lon":-2.369547770205079},{"tiploc":"PCKHMQD","crs":"QRP","name":"Queens Road Peckham","lat":51.4735643467626,"lon":-0.0573135676937522},{"tiploc":"MIDGHAM","crs":"MDG","name":"Midgham","lat":51.395973166177534,"lon":-1.1777111832007257},{"tiploc":"MUCK","crs":"MUK","name":"Muck (Bus)","lat":0,"lon":0},{"tiploc":"BCKWATR","crs":"BAW","name":"Blackwater","lat":51.331579805088744,"lon":-0.7767409865931416},{"tiploc":"MEXBRGH","crs":"MEX","name":"Mexborough","lat":53.4909906778526,"lon":-1.2885613401038845},{"tiploc":"ARDWICK","crs":"ADK","name":"Ardwick","lat":53.47134226395536,"lon":-2.2138838842383604},{"tiploc":"DANBY","crs":"DNY","name":"Danby","lat":54.46615164504401,"lon":-0.9109557967312526},{"tiploc":"GOURPIE","crs":"GXX","name":"Gourock Pier (Bus)","lat":0,"lon":0},{"tiploc":"HINDLEY","crs":"HIN","name":"Hindley","lat":53.5422351078765,"lon":-2.5755016316590877},{"tiploc":"PSLYGST","crs":"PYG","name":"Paisley Gilmour Street","lat":55.84734834169205,"lon":-4.424506320272606},{"tiploc":"PWCKAPT","crs":"PRA","name":"Prestwick Intl Airport","lat":55.50903413058006,"lon":-4.614169982175123},{"tiploc":"DUDLPT","crs":"DDP","name":"Dudley Port","lat":52.52464968997138,"lon":-2.0494795543777355},{"tiploc":"NWMKET","crs":"NMK","name":"Newmarket","lat":52.23794223147221,"lon":0.40620825657474535},{"tiploc":"KLGL","crs":"KGL","name":"Kings Langley","lat":51.70635407333809,"lon":-0.4384219336413307},{"tiploc":"MLGV","crs":"MLN","name":"Milngavie","lat":55.94136407239755,"lon":-4.314580331436929},{"tiploc":"FRIMLEY","crs":"FML","name":"Frimley","lat":51.311860193864256,"lon":-0.746991327287048},{"tiploc":"NLRTN","crs":"NTR","name":"Northallerton","lat":54.33307043315577,"lon":-1.441273014849191},{"tiploc":"SWCH","crs":"SDW","name":"Sandwich","lat":51.269901433041206,"lon":1.3425680679307108},{"tiploc":"BERRYB","crs":"BBW","name":"Berry Brow","lat":53.621039094222894,"lon":-1.7934320912285353},{"tiploc":"DIDCOTP","crs":"DID","name":"Didcot Parkway","lat":51.61095262813155,"lon":-1.2428934666610905},{"tiploc":"SNGT","crs":"SOG","name":"Stonegate","lat":51.01996573156394,"lon":0.3638681279567043},{"tiploc":"HTRW","crs":"LHR","name":"Heathrow Airport (Bus)","lat":0,"lon":0},{"tiploc":"HALG","crs":"HAI","name":"Halling","lat":51.35247585238718,"lon":0.4449317874378512},{"tiploc":"PWLHELI","crs":"PWL","name":"Pwllheli","lat":52.887832505759135,"lon":-4.416697424598288},{"tiploc":"WCLIFF","crs":"WCF","name":"Westcliff","lat":51.53733148675008,"lon":0.6914658883353497},{"tiploc":"HAGGERS","crs":"HGG","name":"Haggerston","lat":51.53870359463006,"lon":-0.07566654543225616},{"tiploc":"CMER","crs":"CMR","name":"Cromer","lat":52.93008230803056,"lon":1.2928244096264836},{"tiploc":"ALXANDR","crs":"ALX","name":"Alexandria","lat":55.98508194911676,"lon":-4.577484177013137},{"tiploc":"BRWCGAL","crs":"XAA","name":"Galashiels (Bus)","lat":0,"lon":0},{"tiploc":"COOKHAM","crs":"COO","name":"Cookham","lat":51.557460949042174,"lon":-0.7220790379968764},{"tiploc":"MNKRISB","crs":"MRS","name":"Monks Risborough","lat":51.735760586118694,"lon":-0.8293336932226391},{"tiploc":"YORTON","crs":"YRT","name":"Yorton","lat":52.80895537337625,"lon":-2.7364610874438946},{"tiploc":"BNTHAM","crs":"BEN","name":"Bentham","lat":54.115515689327516,"lon":-2.510676138109706},{"tiploc":"GOBOWEN","crs":"GOB","name":"Gobowen","lat":52.89351311557426,"lon":-3.0371725415984145},{"tiploc":"HALE","crs":"HAL","name":"Hale","lat":53.37871596370728,"lon":-2.347356752923866},{"tiploc":"CNTY","crs":"CAY","name":"Carntyne","lat":55.85487150193085,"lon":-4.178572149943831},{"tiploc":"SEATNSF","crs":"SSF","name":"Seaton, Devon (Bus)","lat":0,"lon":0},{"tiploc":"BRSDE","crs":"BUI","name":"Burnside","lat":55.816925074960515,"lon":-4.2023893240217705},{"tiploc":"SELAFLD","crs":"SEL","name":"Sellafield","lat":54.416583603684806,"lon":-3.5104564274443253},{"tiploc":"WDNLUL","crs":"WIM","name":"Wimbledon","lat":51.42127371866525,"lon":-0.2063686576928071},{"tiploc":"YRDLYWD","crs":"YRD","name":"Yardley Wood","lat":52.421500818440244,"lon":-1.8543803043900209},{"tiploc":"CHESHNT","crs":"CHN","name":"Cheshunt","lat":51.70287431734244,"lon":-0.02395971939804669},{"tiploc":"HLFX","crs":"HFX","name":"Halifax","lat":53.720959084760786,"lon":-1.8535747288747542},{"tiploc":"EARLSWD","crs":"ELD","name":"Earlswood (Surrey)","lat":51.22732659082749,"lon":-0.17082306188471091},{"tiploc":"STOKHAN","crs":"HNY","name":"Hanley (Bus)","lat":0,"lon":0},{"tiploc":"THOKLB","crs":"TOK","name":"Three Oaks","lat":50.90111338242382,"lon":0.6130509716152298},{"tiploc":"PARISND","crs":"PBN","name":"Paris Nord","lat":48.8809,"lon":2.3553},{"tiploc":"TEDNGTN","crs":"TED","name":"Teddington","lat":51.42447885135472,"lon":-0.3327059798315425},{"tiploc":"HYKEHAM","crs":"HKM","name":"Hykeham","lat":53.19500333369731,"lon":-0.6001964539283414},{"tiploc":"GSCD","crs":"GRS","name":"Garscadden","lat":55.887693410701466,"lon":-4.365004452962736},{"tiploc":"DISLEY","crs":"DSL","name":"Disley","lat":53.358181062848054,"lon":-2.0424815232310087},{"tiploc":"HEDGEND","crs":"HDE","name":"Hedge End","lat":50.93231779614968,"lon":-1.2945033499725416},{"tiploc":"BRNSTPL","crs":"BNP","name":"Barnstaple","lat":51.07396761736103,"lon":-4.06311678114852},{"tiploc":"KENISHD","crs":"KNS","name":"Kennishead","lat":55.813314491870216,"lon":-4.325246101222722},{"tiploc":"LAKNHTH","crs":"LAK","name":"Lakenheath","lat":52.44739876026481,"lon":0.5351976282324373},{"tiploc":"TULSEH","crs":"TUH","name":"Tulse Hill","lat":51.43985930266687,"lon":-0.10507676152175217},{"tiploc":"BRBY","crs":"BSY","name":"Brondesbury","lat":51.54516384536102,"lon":-0.20230872661681343},{"tiploc":"FOXFILD","crs":"FOX","name":"Foxfield","lat":54.25866629865523,"lon":-3.2160614708759887},{"tiploc":"SHRWBY","crs":"SHR","name":"Shrewsbury","lat":52.71192676795479,"lon":-2.749761144951977},{"tiploc":"WELHAMG","crs":"WMG","name":"Welham Green","lat":51.73635033380392,"lon":-0.21069174517156944},{"tiploc":"HLFT","crs":"HLF","name":"Hillfoot","lat":55.920091301901486,"lon":-4.320274100697253},{"tiploc":"PCKHMRY","crs":"PMR","name":"Peckham Rye","lat":51.470032278229645,"lon":-0.06941440763101693},{"tiploc":"PEMBFTM","crs":"PDK","name":"Pembroke Dock Ferry Term","lat":0,"lon":0},{"tiploc":"SLADEGN","crs":"SGR","name":"Slade Green","lat":51.467784228261124,"lon":0.19049134611864152},{"tiploc":"FRSHFLD","crs":"FRE","name":"Freshfield","lat":53.566051487778815,"lon":-3.071829394658652},{"tiploc":"SDLG","crs":"SDG","name":"Sandling","lat":51.09036856293132,"lon":1.0660427704251827},{"tiploc":"DALMUIR","crs":"DMR","name":"Dalmuir","lat":55.91192805573142,"lon":-4.426680836378344},{"tiploc":"TREFRST","crs":"TRF","name":"Trefforest","lat":51.59146041493193,"lon":-3.3251177491921586},{"tiploc":"LAZKRKO","crs":"LZB","name":"Lazonby & Kirkoswald","lat":54.75043515788677,"lon":-2.703208593363997},{"tiploc":"KNCKHLT","crs":"KCK","name":"Knockholt","lat":51.34578762936398,"lon":0.13084706073294605},{"tiploc":"LYNGRIL","crs":"LLW","name":"Llwyngwril","lat":52.666779626471325,"lon":-4.087678883867072},{"tiploc":"DANESCT","crs":"DCT","name":"Danescourt","lat":51.50050408040968,"lon":-3.2339167786478193},{"tiploc":"HRSM","crs":"HRM","name":"Harrietsham","lat":51.24483081366307,"lon":0.6723993422194765},{"tiploc":"WCKHMMR","crs":"WCM","name":"Wickham Market","lat":52.15109797890159,"lon":1.3986801343035622},{"tiploc":"FTHRSTN","crs":"FEA","name":"Featherstone","lat":53.679064725180496,"lon":-1.3584441326728776},{"tiploc":"HERNEH","crs":"HNH","name":"Herne Hill","lat":51.45330316857944,"lon":-0.10228916719167419},{"tiploc":"MNCROXR","crs":"MCO","name":"Manchester Oxford Road","lat":53.47403006615655,"lon":-2.241995406797514},{"tiploc":"LYTNSHR","crs":"LER","name":"Leytonstone High Road","lat":51.56355261158478,"lon":0.008416396367203939},{"tiploc":"HLSTCOI","crs":"XAV","name":"Helston (Bus)","lat":0,"lon":0},{"tiploc":"RAUCEBY","crs":"RAU","name":"Rauceby","lat":52.98520279700324,"lon":-0.4566061907096192},{"tiploc":"HAMWICK","crs":"HMW","name":"Hampton Wick","lat":51.41452265176211,"lon":-0.31248952837907124},{"tiploc":"STJMSST","crs":"SJS","name":"St James Street","lat":51.580979040166206,"lon":-0.0329184538416972},{"tiploc":"TSDARPR","crs":"TEA","name":"Tees-side Airport","lat":54.5181309447667,"lon":-1.4253114371461526},{"tiploc":"CUMBRAE","crs":"CUL","name":"Cumbrae Slip (Bus)","lat":0,"lon":0},{"tiploc":"LLWRDA","crs":"LNR","name":"Llanwrda","lat":51.962584894366564,"lon":-3.8716737984036493},{"tiploc":"BESTON","crs":"BEE","name":"Beeston","lat":52.92075314328905,"lon":-1.2076579248609383},{"tiploc":"MNTVRNN","crs":"MTV","name":"Mount Vernon","lat":55.84020059808293,"lon":-4.133669128525143},{"tiploc":"CHORBUK","crs":"BSV","name":"Buckshaw Parkway","lat":53.673339376161884,"lon":-2.660829852861463},{"tiploc":"DLMALLY","crs":"DAL","name":"Dalmally","lat":56.40118807919738,"lon":-4.983552010156044},{"tiploc":"KNTSHTN","crs":"KTN","name":"Kentish Town","lat":51.5504930446158,"lon":-0.14036498220597016},{"tiploc":"TRFDPK","crs":"TRA","name":"Trafford Park","lat":53.45481560670526,"lon":-2.3106311180483594},{"tiploc":"AMBERGT","crs":"AMB","name":"Ambergate","lat":53.06051468384517,"lon":-1.4806974498607373},{"tiploc":"GOXHILL","crs":"GOX","name":"Goxhill","lat":53.676700979783654,"lon":-0.3371204815499558},{"tiploc":"PNTLTYN","crs":"PLT","name":"Pontlottyn","lat":51.74663017090287,"lon":-3.278955816478878},{"tiploc":"ATADALE","crs":"ATT","name":"Attadale","lat":57.395035629376764,"lon":-5.455577000042555},{"tiploc":"POKSDWN","crs":"POK","name":"Pokesdown","lat":50.731086084416,"lon":-1.8251020610348874},{"tiploc":"STDI","crs":"STI","name":"Stadium of Light (T & W Metro)","lat":54.9182,"lon":-1.3829},{"tiploc":"HOOTON","crs":"HOO","name":"Hooton","lat":53.297197164029875,"lon":-2.977009255328369},{"tiploc":"KINSSTN","crs":"KGS","name":"Kings Sutton","lat":52.02134961477059,"lon":-1.280930579507839},{"tiploc":"KNTSHTW","crs":"KTW","name":"Kentish Town West","lat":51.54654598126563,"lon":-0.1466555103053037},{"tiploc":"PICDYCR","crs":"ZPC","name":"Piccadilly Circus Underground","lat":51.5101,"lon":-0.134},{"tiploc":"UTOXETR","crs":"UTT","name":"Uttoxeter","lat":52.89678930342233,"lon":-1.8572546362577007},{"tiploc":"BLSHL","crs":"BLH","name":"Bellshill","lat":55.81706228689023,"lon":-4.0244990359818775},{"tiploc":"BRUNDLG","crs":"BGA","name":"Brundall Gardens","lat":52.62344106360133,"lon":1.4184162496752097},{"tiploc":"DRTMPON","crs":"XAP","name":"Dartmouth (Bus)","lat":0,"lon":0},{"tiploc":"PSTA","crs":"PRT","name":"Prestatyn","lat":53.33649590144468,"lon":-3.4071316897149937},{"tiploc":"CLAPTON","crs":"CPT","name":"Clapton","lat":51.56164206099666,"lon":-0.05702465189169915},{"tiploc":"LTCE","crs":"LET","name":"Letchworth Garden City","lat":51.97996217934114,"lon":-0.22926415297673805},{"tiploc":"PARSNST","crs":"PSN","name":"Parson Street","lat":51.43331766141778,"lon":-2.607741549711272},{"tiploc":"PNGEE","crs":"PNE","name":"Penge East","lat":51.41933204379695,"lon":-0.05422053050646928},{"tiploc":"NRTF","crs":"NFD","name":"Northfield","lat":52.40819011437692,"lon":-1.965851441002928},{"tiploc":"LCHTTVH","crs":"LTV","name":"Lichfield Trent Valley","lat":52.68689237966971,"lon":-1.800228902318383},{"tiploc":"CAMBDGE","crs":"CBG","name":"Cambridge","lat":52.19406538737189,"lon":0.13745646801078112},{"tiploc":"NPUD","crs":"NPD","name":"New Pudsey","lat":53.80448227500784,"lon":-1.6807923189311682},{"tiploc":"ETILBRY","crs":"ETL","name":"East Tilbury","lat":51.484829382760225,"lon":0.4129277981342489},{"tiploc":"LCHTTVL","crs":"LTV","name":"Lichfield Trent Valley","lat":52.68689237966971,"lon":-1.800228902318383},{"tiploc":"SNAITH","crs":"SNI","name":"Snaith","lat":53.69311240846523,"lon":-1.0284597678243106},{"tiploc":"AVONMTH","crs":"AVN","name":"Avonmouth","lat":51.50036043142757,"lon":-2.699466087928703},{"tiploc":"TENBY","crs":"TEN","name":"Tenby","lat":51.672942788019206,"lon":-4.706695850623448},{"tiploc":"PTGLSGW","crs":"PTG","name":"Port Glasgow","lat":55.93351370491778,"lon":-4.689825643491073},{"tiploc":"SPFD","crs":"SPF","name":"Springfield","lat":56.294969399104104,"lon":-3.0524480742426587},{"tiploc":"THBDGS","crs":"TBD","name":"Three Bridges","lat":51.116921878664904,"lon":-0.16118407605786683},{"tiploc":"SLFDCT","crs":"SLD","name":"Salford Crescent","lat":53.48658566966817,"lon":-2.2757492966098565},{"tiploc":"GLDTHRP","crs":"GOE","name":"Goldthorpe","lat":53.53418775884395,"lon":-1.3128076810712688},{"tiploc":"STMRYC","crs":"SMY","name":"St Mary Cray","lat":51.39474740698485,"lon":0.10638359303547118},{"tiploc":"DRBY","crs":"DBY","name":"Derby","lat":52.916546205330725,"lon":-1.4633546510970457},{"tiploc":"HTRWAPT","crs":"HXX","name":"Heathrow Airport T123","lat":51.47140387039747,"lon":-0.4543326813487261},{"tiploc":"THFORD","crs":"THO","name":"Thornford","lat":50.91057448043982,"lon":-2.5789871712917596},{"tiploc":"PRSTFGT","crs":"PRE","name":"Preston","lat":53.75685774699433,"lon":-2.7081278479201925},{"tiploc":"KILWNNG","crs":"KWN","name":"Kilwinning","lat":55.655949795828704,"lon":-4.710018539496418},{"tiploc":"PRSTN4B","crs":"PRE","name":"Preston","lat":53.75685774699433,"lon":-2.7081278479201925},{"tiploc":"HLTWHST","crs":"HWH","name":"Haltwhistle","lat":54.967847642210856,"lon":-2.463564961481619},{"tiploc":"CNNBELL","crs":"CNN","name":"Canonbury","lat":51.54873038160693,"lon":-0.09219092385023264},{"tiploc":"BOSHAM","crs":"BOH","name":"Bosham","lat":50.84274583190151,"lon":-0.8474311893773843},{"tiploc":"ORELPKH","crs":"OPK","name":"Orrell Park","lat":53.461896316121724,"lon":-2.9633154375890705},{"tiploc":"BRBM","crs":"BDB","name":"Broadbottom","lat":53.44097215219012,"lon":-2.016520775436163},{"tiploc":"PCWLJST","crs":"XEO","name":"Porthcawl (Bus)","lat":0,"lon":0},{"tiploc":"LKWD","crs":"LCK","name":"Lockwood","lat":53.634731633888244,"lon":-1.8007907560092655},{"tiploc":"NRTHFLT","crs":"NFL","name":"Northfleet","lat":51.445844388643934,"lon":0.3243334785110315},{"tiploc":"TNYPNDY","crs":"TNP","name":"Tonypandy","lat":51.61976102867766,"lon":-3.448869179147853},{"tiploc":"FLSCRHN","crs":"FOC","name":"Falls of Cruachan","lat":56.39388185142366,"lon":-5.112477644075156},{"tiploc":"HAYMRKT","crs":"HYM","name":"Haymarket","lat":55.94580677316036,"lon":-3.218449423339208},{"tiploc":"HITCHIN","crs":"HIT","name":"Hitchin","lat":51.95328071619504,"lon":-0.2634808343784135},{"tiploc":"CLTHRPS","crs":"CLE","name":"Cleethorpes","lat":53.56190435620549,"lon":-0.02922092460659578},{"tiploc":"PALMRSG","crs":"PAL","name":"Palmers Green","lat":51.61831245275923,"lon":-0.11043663654680623},{"tiploc":"ARDGAY","crs":"ARD","name":"Ardgay","lat":57.88145185839395,"lon":-4.362089188567635},{"tiploc":"BUSBY","crs":"BUS","name":"Busby","lat":55.78033815722443,"lon":-4.262200692286819},{"tiploc":"EIGG","crs":"EIG","name":"Eigg (Bus)","lat":0,"lon":0},{"tiploc":"LNGEATN","crs":"LGE","name":"Long Eaton","lat":52.88498606260129,"lon":-1.28752053359377},{"tiploc":"TULLOCH","crs":"TUL","name":"Tulloch","lat":56.884277708797306,"lon":-4.701321035135001},{"tiploc":"ABRDEEN","crs":"ABD","name":"Aberdeen","lat":57.14370353025304,"lon":-2.098685127567237},{"tiploc":"BOORCHY","crs":"BRO","name":"Bridge of Orchy","lat":56.515865976726694,"lon":-4.762992730363308},{"tiploc":"GTCOATS","crs":"GCT","name":"Great Coates","lat":53.575752224853,"lon":-0.13023045918101425},{"tiploc":"INEL","crs":"INE","name":"Ince & Elton","lat":53.27660584377633,"lon":-2.8165222811548722},{"tiploc":"RADSVHL","crs":"XEQ","name":"Radstock (Bus)","lat":0,"lon":0},{"tiploc":"WITTON","crs":"WTT","name":"Witton","lat":52.51237771516032,"lon":-1.8844345981100743},{"tiploc":"PBROSTI","crs":"SWB","name":"Swaffham Tourist Inf Ctr (Bus)","lat":0,"lon":0},{"tiploc":"THUSTON","crs":"TRS","name":"Thurston","lat":52.25000132000426,"lon":0.8086527177788811},{"tiploc":"FRNCMB","crs":"FNC","name":"Farncombe","lat":51.19715204383635,"lon":-0.6045488525446758},{"tiploc":"EBSFLTI","crs":"EBD","name":"Ebbsfleet International","lat":51.442971247900026,"lon":0.32092084452941283},{"tiploc":"DRNGTOS","crs":"DUR","name":"Durrington-on-Sea","lat":50.817526019506936,"lon":-0.4114686925718698},{"tiploc":"COSHAM","crs":"CSA","name":"Cosham","lat":50.84192234916986,"lon":-1.067328723664641},{"tiploc":"PEGSWD","crs":"PEG","name":"Pegswood","lat":55.178127814198085,"lon":-1.6441657964740504},{"tiploc":"CLELAND","crs":"CEA","name":"Cleland","lat":55.804646464062124,"lon":-3.910243951681394},{"tiploc":"GLOSTER","crs":"GCR","name":"Gloucester","lat":51.8655568612833,"lon":-2.2384876080416016},{"tiploc":"TACKLEY","crs":"TAC","name":"Tackley","lat":51.881236199354866,"lon":-1.2975355391077772},{"tiploc":"MLFDHVN","crs":"MFH","name":"Milford Haven","lat":51.71497093109255,"lon":-5.040968379059169},{"tiploc":"PRYBR","crs":"PRY","name":"Perry Barr","lat":52.51648389973053,"lon":-1.9019600442781845},{"tiploc":"RHYL","crs":"RHL","name":"Rhyl","lat":53.318420628970856,"lon":-3.489105212383419},{"tiploc":"HNDSHWT","crs":"THW","name":"The Hawthorns","lat":52.50537140494586,"lon":-1.9640088540705205},{"tiploc":"WHITHVN","crs":"WTH","name":"Whitehaven","lat":54.55302988423088,"lon":-3.586933067703845},{"tiploc":"KGSTON","crs":"KNG","name":"Kingston","lat":51.41274940926815,"lon":-0.3011657769480034},{"tiploc":"MCKLFLD","crs":"MIK","name":"Micklefield","lat":53.788835190606726,"lon":-1.3267931022102366},{"tiploc":"LAIRG","crs":"LRG","name":"Lairg","lat":58.001828751738465,"lon":-4.399888797119743},{"tiploc":"EPSM","crs":"EPS","name":"Epsom","lat":51.33439088535499,"lon":-0.2687776712499157},{"tiploc":"WRGTNBQ","crs":"WBQ","name":"Warrington Bank Quay","lat":53.386006662850924,"lon":-2.6023641535867097},{"tiploc":"CLYNDRW","crs":"CUW","name":"Clunderwen","lat":51.8405377621609,"lon":-4.731841705223198},{"tiploc":"DNTG","crs":"DTG","name":"Dinting","lat":53.44932899870097,"lon":-1.9702985554190955},{"tiploc":"ASCOT","crs":"ACT","name":"Ascot","lat":51.40624186725653,"lon":-0.6758332238760294},{"tiploc":"BDSTON","crs":"BID","name":"Bidston","lat":53.40913486672331,"lon":-3.078560544088112},{"tiploc":"BOWLING","crs":"BWG","name":"Bowling","lat":55.931078198331456,"lon":-4.493841467520096},{"tiploc":"BRMPTNC","crs":"BMP","name":"Brampton (Cumbria)","lat":54.93238879627023,"lon":-2.702947172784327},{"tiploc":"CLACTON","crs":"CLT","name":"Clacton-on-Sea","lat":51.79400062557835,"lon":1.1540916941899868},{"tiploc":"BCNGNOS","crs":"BCH","name":"Birchington-on-Sea","lat":51.37749032788524,"lon":1.301408462707313},{"tiploc":"PLYMSAL","crs":"XDJ","name":"Plymouth Saltash Road (Bus)","lat":0,"lon":0},{"tiploc":"BENFLET","crs":"BEF","name":"Benfleet","lat":51.54394305582183,"lon":0.5617133707099743},{"tiploc":"HELMSDL","crs":"HMS","name":"Helmsdale","lat":58.11743837217153,"lon":-3.6586875663052796},{"tiploc":"KEYHAM","crs":"KEY","name":"Keyham","lat":50.38987792799004,"lon":-4.179599118407663},{"tiploc":"MSSD","crs":"MOS","name":"Moss Side","lat":53.76497454423751,"lon":-2.942934486838571},{"tiploc":"PTCK","crs":"PTK","name":"Partick","lat":55.86988679324576,"lon":-4.3088062490911},{"tiploc":"SGFORD","crs":"SGN","name":"South Greenford","lat":51.533747652663806,"lon":-0.33670439340257413},{"tiploc":"SOLEST","crs":"SOR","name":"Sole Street","lat":51.383143587660655,"lon":0.37809691905408566},{"tiploc":"DNDL","crs":"DBD","name":"Denby Dale","lat":53.572629419788655,"lon":-1.6632103594393473},{"tiploc":"BRBYPK","crs":"BSP","name":"Brondesbury Park","lat":51.54069727523689,"lon":-0.210127657445777},{"tiploc":"SESABUS","crs":"SEE","name":"Southease","lat":50.831263409770195,"lon":0.030641251314194845},{"tiploc":"ALTT","crs":"ATW","name":"Alton Towers (Bus)","lat":0,"lon":0},{"tiploc":"CRNLRCH","crs":"CNR","name":"Crianlarich","lat":56.39047510440467,"lon":-4.618433482170724},{"tiploc":"CHARTHM","crs":"CRT","name":"Chartham","lat":51.257263703857966,"lon":1.0180392815707564},{"tiploc":"SGRLOAF","crs":"SUG","name":"Sugar Loaf","lat":52.08226812613961,"lon":-3.686948750962121},{"tiploc":"HIGM","crs":"HGM","name":"Higham","lat":51.42655712784943,"lon":0.46627771137257834},{"tiploc":"WAUNGRN","crs":"WNG","name":"Waun-gron Park","lat":51.48819395882897,"lon":-3.229652282501059},{"tiploc":"DUMBRCK","crs":"DUM","name":"Dumbreck","lat":55.84464767661762,"lon":-4.301238978621025},{"tiploc":"PKHMRYC","crs":"PMR","name":"Peckham Rye","lat":51.470032278229645,"lon":-0.06941440763101693},{"tiploc":"CRBG","crs":"CRB","name":"Corbridge","lat":54.966259427577626,"lon":-2.0184000800629076},{"tiploc":"FAMBDGE","crs":"NFA","name":"North Fambridge","lat":51.6485816994866,"lon":0.681658806123495},{"tiploc":"ABRGVNY","crs":"AGV","name":"Abergavenny","lat":51.81668808803388,"lon":-3.0096467667070144},{"tiploc":"HAGLEY","crs":"HAG","name":"Hagley","lat":52.422488087376465,"lon":-2.14641708606898},{"tiploc":"CHELFD","crs":"CEL","name":"Chelford","lat":53.270308211359996,"lon":-2.280577001806842},{"tiploc":"HAWICK","crs":"HWK","name":"Hawick (Bus)","lat":0,"lon":0},{"tiploc":"HUNGRFD","crs":"HGD","name":"Hungerford","lat":51.414908545734725,"lon":-1.5122869950944067},{"tiploc":"BLOXN","crs":"BWN","name":"Bloxwich North","lat":52.625434581024855,"lon":-2.0176843687870076},{"tiploc":"DAWSHLM","crs":"KVD","name":"Kelvindale","lat":55.893554631769526,"lon":-4.309572525486528},{"tiploc":"RUSWARP","crs":"RUS","name":"Ruswarp","lat":54.470189097071874,"lon":-0.6277717087195566},{"tiploc":"CLAVRDN","crs":"CLV","name":"Claverdon","lat":52.27708876003458,"lon":-1.696559841761354},{"tiploc":"RHIL","crs":"RNH","name":"Rainhill","lat":53.41712000449921,"lon":-2.7664002129641996},{"tiploc":"CIVI","crs":"CIC","name":"Park Lane (Bus)","lat":0,"lon":0},{"tiploc":"EWELW","crs":"EWW","name":"Ewell West","lat":51.350043013973966,"lon":-0.25698661099604886},{"tiploc":"HGHI","crs":"HHY","name":"Highbury & Islington","lat":51.546175290908955,"lon":-0.103763713575122},{"tiploc":"APBY","crs":"APP","name":"Appleby","lat":54.58034486473816,"lon":-2.486692218601386},{"tiploc":"HUCKNAL","crs":"HKN","name":"Hucknall","lat":53.03828239753967,"lon":-1.1958115023503497},{"tiploc":"MRSN","crs":"MSN","name":"Marsden","lat":53.60318457300066,"lon":-1.9307497923692394},{"tiploc":"PARRSTA","crs":"XDR","name":"Par (Bus)","lat":0,"lon":0},{"tiploc":"TCULVRT","crs":"TPC","name":"Thorpe Culvert","lat":53.12309002024613,"lon":0.19941515305401458},{"tiploc":"EWELLE","crs":"EWE","name":"Ewell East","lat":51.34529769645007,"lon":-0.24152963050335974},{"tiploc":"GNTN","crs":"GTN","name":"Grangetown","lat":51.46760976771803,"lon":-3.189723829542629},{"tiploc":"LEOMNST","crs":"LEO","name":"Leominster","lat":52.225680212305456,"lon":-2.730341041504309},{"tiploc":"DOLAU","crs":"DOL","name":"Dolau","lat":52.29534863071503,"lon":-3.2636202890723816},{"tiploc":"CURRIEH","crs":"CUH","name":"Curriehill","lat":55.9005643212014,"lon":-3.318751338914658},{"tiploc":"KTBK","crs":"KBK","name":"Kents Bank","lat":54.1729007162217,"lon":-2.925229156653102},{"tiploc":"DUBLFST","crs":"DPS","name":"Dublin Port (Stena)","lat":53.34783,"lon":-6.19848},{"tiploc":"PALL","crs":"PAI","name":"Pallion (T & W Metro)","lat":54.9128,"lon":-1.4177},{"tiploc":"MLSECMB","crs":"MCB","name":"Moulsecoomb","lat":50.84672010063687,"lon":-0.11884180852573299},{"tiploc":"NEEDHAM","crs":"NMT","name":"Needham Market","lat":52.15258744418492,"lon":1.0552597830420583},{"tiploc":"WSTRFLD","crs":"WFI","name":"Westerfield","lat":52.08098072822485,"lon":1.1659048048117573},{"tiploc":"STCR","crs":"SCG","name":"Stone Crossing","lat":51.451328541958,"lon":0.26377116293959196},{"tiploc":"STRNRR","crs":"STR","name":"Stranraer","lat":54.9096003954831,"lon":-5.024737359866029},{"tiploc":"WATRLLT","crs":"ZWA","name":"Waterloo Underground","lat":51.5031428,"lon":-0.1143696},{"tiploc":"PILNING","crs":"PIL","name":"Pilning","lat":51.55662520415751,"lon":-2.6271116240513464},{"tiploc":"SWNDRBY","crs":"SWD","name":"Swinderby","lat":53.169554154405425,"lon":-0.7026794571211478},{"tiploc":"MRSK","crs":"MSK","name":"Marske","lat":54.587415763647456,"lon":-1.0189097180495523},{"tiploc":"TROON","crs":"TRN","name":"Troon","lat":55.54280973813264,"lon":-4.655299470397466},{"tiploc":"WIDNES","crs":"WID","name":"Widnes","lat":53.37849495089055,"lon":-2.733536646122137},{"tiploc":"HRNSTPL","crs":"ZTL","name":"Turnpike Lane","lat":0,"lon":0},{"tiploc":"KEMSING","crs":"KMS","name":"Kemsing","lat":51.29718520215101,"lon":0.24742833644614287},{"tiploc":"SCRBSTR","crs":"SCB","name":"Scrabster (Bus)","lat":0,"lon":0},{"tiploc":"SNDRMNK","crs":"STZ","name":"St Peters (T & W Metro)","lat":54.91143860969103,"lon":-1.3838019376005097},{"tiploc":"LYNDHRD","crs":"ANF","name":"Ashurst New Forest","lat":50.88984864429617,"lon":-1.526630716454598},{"tiploc":"WHTTON","crs":"WTN","name":"Whitton","lat":51.44960545924762,"lon":-0.3576814035493384},{"tiploc":"ANSL","crs":"ANL","name":"Anniesland","lat":55.889349079512414,"lon":-4.321956775597159},{"tiploc":"MEVATRE","crs":"XEF","name":"Mevagissey (Bus)","lat":0,"lon":0},{"tiploc":"STRCROS","crs":"SCS","name":"Starcross","lat":50.627795924647245,"lon":-3.447704174620955},{"tiploc":"FRBN","crs":"FRB","name":"Fairbourne","lat":52.696039738099984,"lon":-4.049413303274705},{"tiploc":"STOCTON","crs":"STK","name":"Stockton","lat":54.56962066118294,"lon":-1.3185431379169859},{"tiploc":"CHNRLOW","crs":"XCQ","name":"Chinnor (Bus)","lat":0,"lon":0},{"tiploc":"LISMORE","crs":"LSM","name":"Lismore (Bus)","lat":0,"lon":0},{"tiploc":"BEVERLY","crs":"BEV","name":"Beverley","lat":53.842271810532765,"lon":-0.422980111596181},{"tiploc":"KIRKHAM","crs":"KKM","name":"Kirkham & Wesham","lat":53.7869136148135,"lon":-2.882940763982038},{"tiploc":"PKWD","crs":"PDW","name":"Paddock Wood","lat":51.1822648197371,"lon":0.389148609285423},{"tiploc":"CNST","crs":"CAN","name":"Carnoustie","lat":56.50056262959535,"lon":-2.7066003596413},{"tiploc":"STCN","crs":"STC","name":"Strathcarron","lat":57.42273253133806,"lon":-5.428612504435078},{"tiploc":"CUFFLEY","crs":"CUF","name":"Cuffley","lat":51.708719868490995,"lon":-0.10978340711870266},{"tiploc":"MONPELR","crs":"MTP","name":"Montpelier","lat":51.46834748599924,"lon":-2.5886855625899994},{"tiploc":"SWNSCMB","crs":"SWM","name":"Swanscombe","lat":51.44906856046875,"lon":0.30954319337013625},{"tiploc":"CNTBE","crs":"CBE","name":"Canterbury East","lat":51.27426563582661,"lon":1.0759684443699573},{"tiploc":"DUMFRES","crs":"DMF","name":"Dumfries","lat":55.07255464419733,"lon":-3.604303222517603},{"tiploc":"HNTL","crs":"HNT","name":"Huntly","lat":57.44448787023692,"lon":-2.7757400038007205},{"tiploc":"LLBSTRD","crs":"LLT","name":"Llanbister Road","lat":52.33642334759878,"lon":-3.213420719302414},{"tiploc":"WATRLMN","crs":"WAT","name":"London Waterloo","lat":51.50329674936403,"lon":-0.11310894207247583},{"tiploc":"MAESTER","crs":"MEW","name":"Maesteg (Ewenny Road)","lat":51.60534020422431,"lon":-3.6489908684408863},{"tiploc":"SUTCO","crs":"SUT","name":"Sutton Coldfield","lat":52.56494039990492,"lon":-1.824844088929983},{"tiploc":"LEEDS","crs":"LDS","name":"Leeds","lat":53.79562496030203,"lon":-1.5480255300534769},{"tiploc":"BNHAM","crs":"BNM","name":"Burnham","lat":51.52350373946237,"lon":-0.6463737942754414},{"tiploc":"CHIPNEW","crs":"XDN","name":"Chippenham New Road (Bus)","lat":0,"lon":0},{"tiploc":"BEAULY","crs":"BEL","name":"Beauly","lat":57.47828191167674,"lon":-4.469865753875628},{"tiploc":"WROXHAM","crs":"HXM","name":"Hoveton & Wroxham","lat":52.7155690274959,"lon":1.4079971106674234},{"tiploc":"HEDSTNL","crs":"HDL","name":"Headstone Lane","lat":51.60264716711857,"lon":-0.35721983028717286},{"tiploc":"LEYLAND","crs":"LEY","name":"Leyland","lat":53.69885286789663,"lon":-2.687145071073239},{"tiploc":"PRST","crs":"PRE","name":"Preston","lat":53.75685774699433,"lon":-2.7081278479201925},{"tiploc":"SUNYMDS","crs":"SNY","name":"Sunnymeads","lat":51.47028650205148,"lon":-0.5593742155330887},{"tiploc":"RNFD","crs":"RNF","name":"Rainford","lat":53.517103842548075,"lon":-2.7894690302648972},{"tiploc":"ESTRNGT","crs":"EGN","name":"Eastrington","lat":53.75515943344046,"lon":-0.7876303708496243},{"tiploc":"KGHN","crs":"KGH","name":"Kinghorn","lat":56.0693365741909,"lon":-3.1741540590627064},{"tiploc":"MATLOCK","crs":"MAT","name":"Matlock","lat":53.13840596935912,"lon":-1.558910757002811},{"tiploc":"NWCMNCK","crs":"NCK","name":"New Cumnock","lat":55.40273817389456,"lon":-4.184340738805232},{"tiploc":"NWPTRTG","crs":"NWP","name":"Newport (South Wales)","lat":51.58878724445292,"lon":-3.000543439197105},{"tiploc":"QUNTRD","crs":"QRD","name":"Quainton Road","lat":0,"lon":0},{"tiploc":"QPRKAC","crs":"QPW","name":"Queens Park (London)","lat":51.53396432381903,"lon":-0.20498484849503842},{"tiploc":"MRSD","crs":"MSD","name":"Moorside","lat":53.516272459836465,"lon":-2.3517994078969533},{"tiploc":"WMWD","crs":"WLM","name":"Williamwood","lat":55.79368487569888,"lon":-4.290334449432073},{"tiploc":"DLWYDLN","crs":"DWD","name":"Dolwyddelan","lat":53.0520105815927,"lon":-3.885132099556326},{"tiploc":"WHLAND","crs":"WTL","name":"Whitland","lat":51.81802803339013,"lon":-4.614390574154056},{"tiploc":"MSSPARK","crs":"MPK","name":"Mosspark","lat":55.84082818916882,"lon":-4.348292490575136},{"tiploc":"MLDTHRD","crs":"MAU","name":"Mauldeth Road","lat":53.43305948612599,"lon":-2.209251222664834},{"tiploc":"HEXHAM","crs":"HEX","name":"Hexham","lat":54.973457609978276,"lon":-2.09479457781364},{"tiploc":"CLTN","crs":"CLI","name":"Clifton","lat":53.52248794808168,"lon":-2.3147463293053487},{"tiploc":"SYDENHM","crs":"SYD","name":"Sydenham","lat":51.427246036084604,"lon":-0.05424397636870967},{"tiploc":"LDYW","crs":"LAD","name":"Ladywell","lat":51.45624244099812,"lon":-0.0190406887828526},{"tiploc":"CHATHAM","crs":"CTM","name":"Chatham","lat":51.380376582423224,"lon":0.521150729131271},{"tiploc":"SWAY","crs":"SWY","name":"Sway","lat":50.78470131268121,"lon":-1.6099957657847423},{"tiploc":"TRURO","crs":"TRU","name":"Truro","lat":50.26383877470938,"lon":-5.064812188548286},{"tiploc":"DALRY","crs":"DLY","name":"Dalry","lat":55.70621876262002,"lon":-4.711079554881402},{"tiploc":"PRSP","crs":"PRP","name":"Preston Park","lat":50.84594208862136,"lon":-0.15516764211618436},{"tiploc":"BLCKPB","crs":"BPB","name":"Blackpool Pleasure Beach","lat":53.787950590160115,"lon":-3.0538759205250923},{"tiploc":"DNSR","crs":"XDY","name":"Dunster (Bus)","lat":0,"lon":0},{"tiploc":"LGHO","crs":"LHO","name":"Langho","lat":53.80483019656719,"lon":-2.448658994557881},{"tiploc":"STEPPS","crs":"SPS","name":"Stepps","lat":55.89013524699054,"lon":-4.140807489803883},{"tiploc":"TOPSHAM","crs":"TOP","name":"Topsham","lat":50.68621453115502,"lon":-3.464422625896101},{"tiploc":"BSAUKLD","crs":"BIA","name":"Bishop Auckland","lat":54.65719371428514,"lon":-1.6777149289947757},{"tiploc":"HNDFRTH","crs":"HTH","name":"Handforth","lat":53.34649159428502,"lon":-2.213633292505922},{"tiploc":"MOTO","crs":"MRT","name":"Moreton (Merseyside)","lat":53.40720503635306,"lon":-3.113501934675201},{"tiploc":"MRCH","crs":"MCH","name":"March","lat":52.55989197830318,"lon":0.09119774993689087},{"tiploc":"TONDU","crs":"TDU","name":"Tondu","lat":51.54736033588723,"lon":-3.595549417050111},{"tiploc":"BCSTN","crs":"BCS","name":"Bicester North","lat":51.90348104529618,"lon":-1.1503834405302182},{"tiploc":"NMPTN","crs":"NMP","name":"Northampton","lat":52.23749871810883,"lon":-0.9066530690124484},{"tiploc":"ALTPE","crs":"ALP","name":"Althorpe","lat":53.58549911063959,"lon":-0.7331822550943784},{"tiploc":"BSTEDMS","crs":"BSE","name":"Bury St Edmunds","lat":52.25376132668849,"lon":0.7133066937728735},{"tiploc":"CHNOBUS","crs":"CPG","name":"Chipping Norton West St (Bus)","lat":0,"lon":0},{"tiploc":"PTRSFLD","crs":"PTR","name":"Petersfield","lat":51.00672454920928,"lon":-0.9411367347918848},{"tiploc":"BUCKNHM","crs":"BUC","name":"Buckenham","lat":52.597736141727765,"lon":1.470325361228022},{"tiploc":"KNLYBUS","crs":"KLY","name":"Kenley","lat":51.32477506779798,"lon":-0.10092541728047168},{"tiploc":"ELTHAM","crs":"ELW","name":"Eltham","lat":51.45564162691863,"lon":0.05247233681788562},{"tiploc":"WENHNGR","crs":"WHA","name":"Westenhanger","lat":51.09495867091396,"lon":1.0380495547375201},{"tiploc":"LGHM","crs":"LHL","name":"Langholm (Bus)","lat":0,"lon":0},{"tiploc":"STRNWPR","crs":"SWP","name":"Stranraer West Pier (Bus)","lat":0,"lon":0},{"tiploc":"HLSTCUL","crs":"XAM","name":"Culdrose RNAS (Bus)","lat":0,"lon":0},{"tiploc":"WHWLL","crs":"WWL","name":"Whitwell","lat":53.279958823188785,"lon":-1.200207147112336},{"tiploc":"EDULWCH","crs":"EDW","name":"East Dulwich","lat":51.46149260795376,"lon":-0.080571695449775},{"tiploc":"FOWESHT","crs":"XAS","name":"Fowey (Bus)","lat":0,"lon":0},{"tiploc":"NTRD","crs":"NRD","name":"North Road","lat":54.53619805924649,"lon":-1.5539496863682962},{"tiploc":"BITERNE","crs":"BTE","name":"Bitterne","lat":50.918219081812346,"lon":-1.3769994993631978},{"tiploc":"CSEAH","crs":"IMW","name":"Imperial Wharf","lat":51.47494724298403,"lon":-0.18282274948706093},{"tiploc":"ANNAN","crs":"ANN","name":"Annan","lat":54.98383376980931,"lon":-3.262580418934523},{"tiploc":"BRDING","crs":"BDN","name":"Brading","lat":50.6783701623818,"lon":-1.1387223697297855},{"tiploc":"CRESING","crs":"CES","name":"Cressing","lat":51.85233470686106,"lon":0.5779610666895125},{"tiploc":"KNEBWTH","crs":"KBW","name":"Knebworth","lat":51.86685300203837,"lon":-0.18728878463534784},{"tiploc":"DLTN","crs":"DAR","name":"Darlington","lat":54.520446299983476,"lon":-1.54732384767041},{"tiploc":"HAWARDN","crs":"HWD","name":"Hawarden","lat":53.18535688884502,"lon":-3.0320806992674627},{"tiploc":"TADWBUS","crs":"TAD","name":"Tadworth","lat":51.29163567610228,"lon":-0.23596466097434754},{"tiploc":"BAGSHOT","crs":"BAG","name":"Bagshot","lat":51.36436573473389,"lon":-0.6886619648913967},{"tiploc":"KNSGHST","crs":"ZHS","name":"Kensington High St Underground","lat":51.5010221,"lon":-0.1927364},{"tiploc":"STAMFD","crs":"SMD","name":"Stamford","lat":52.64783023613651,"lon":-0.48011521815778613},{"tiploc":"BNSD","crs":"BUD","name":"Burneside","lat":54.35497818496414,"lon":-2.7666768549764145},{"tiploc":"DNSN","crs":"DOT","name":"Dunston","lat":54.95005380201105,"lon":-1.6420444264848724},{"tiploc":"ELTR","crs":"ELS","name":"Elstree & Borehamwood","lat":51.653067525992235,"lon":-0.2800815308239107},{"tiploc":"CHFN","crs":"CHF","name":"Church Fenton","lat":53.82659901587783,"lon":-1.2275888075482686},{"tiploc":"HAZL","crs":"HAZ","name":"Hazel Grove","lat":53.377541479402424,"lon":-2.1220193539330725},{"tiploc":"KMPSTNH","crs":"KMH","name":"Kempston Hardwick","lat":52.092216561792284,"lon":-0.503913816357818},{"tiploc":"WDHAMFR","crs":"SOF","name":"South Woodham Ferrers","lat":51.649456315625315,"lon":0.6065050721194083},{"tiploc":"NRCH","crs":"NRW","name":"Norwich","lat":52.62715135671182,"lon":1.3068200692351606},{"tiploc":"ASHUBUS","crs":"AHS","name":"Ashurst","lat":51.1286608654508,"lon":0.15265211905533932},{"tiploc":"LCHMADY","crs":"LCH","name":"Lochmaddy, North Uist (Bus)","lat":0,"lon":0},{"tiploc":"FITZWLM","crs":"FZW","name":"Fitzwilliam","lat":53.63249900754808,"lon":-1.3742730514793733},{"tiploc":"MILKNPK","crs":"MIN","name":"Milliken Park","lat":55.825110460976596,"lon":-4.533357892965771},{"tiploc":"RUNCORN","crs":"RUN","name":"Runcorn","lat":53.33869308497395,"lon":-2.7392511191085096},{"tiploc":"WALSALL","crs":"WSL","name":"Walsall","lat":52.584396707348795,"lon":-1.9847549044354176},{"tiploc":"OAKHAM","crs":"OKM","name":"Oakham","lat":52.67221309567236,"lon":-0.734171179052045},{"tiploc":"WATRLOO","crs":"WAT","name":"London Waterloo","lat":51.50329674936403,"lon":-0.11310894207247583},{"tiploc":"ALBNFCL","crs":"AYP","name":"Albany Park","lat":51.43545074209875,"lon":0.12573707258458985},{"tiploc":"MAESTGW","crs":"MST","name":"Maesteg","lat":51.609936527991266,"lon":-3.654645533229463},{"tiploc":"KNUCKLS","crs":"KNU","name":"Knucklas","lat":52.35985976035295,"lon":-3.0968773831008822},{"tiploc":"LESTER","crs":"LEI","name":"Leicester","lat":52.63142346389848,"lon":-1.1252754879979778},{"tiploc":"WATRLOW","crs":"WAT","name":"London Waterloo","lat":51.50329674936403,"lon":-0.11310894207247583},{"tiploc":"WTCR","crs":"WCR","name":"Whitecraigs","lat":55.79032095720713,"lon":-4.310156614120438},{"tiploc":"MORTHRP","crs":"MRP","name":"Moorthorpe","lat":53.59499450143558,"lon":-1.304947026200511},{"tiploc":"STHLNSC","crs":"SNH","name":"St Helens Central","lat":53.453121347253756,"lon":-2.7303047705164274},{"tiploc":"CNCK","crs":"CAO","name":"Cannock","lat":52.68615917215587,"lon":-2.0221472570810692},{"tiploc":"DERKER","crs":"DKR","name":"Derker","lat":0,"lon":0},{"tiploc":"RAINHMK","crs":"RAI","name":"Rainham (Kent)","lat":51.36630390787879,"lon":0.6113370928898443},{"tiploc":"RSKNGTN","crs":"RKT","name":"Ruskington","lat":53.041461166001405,"lon":-0.3807621721193936},{"tiploc":"YOKER","crs":"YOK","name":"Yoker","lat":55.892585292511335,"lon":-4.38628658381112},{"tiploc":"BRDLNGT","crs":"BDT","name":"Bridlington","lat":54.08412954937161,"lon":-0.19872038337975348},{"tiploc":"SALE","crs":"SLE","name":"Sale Metrolink (Bus)","lat":0,"lon":0},{"tiploc":"BOMOHAP","crs":"BHA","name":"Bournemouth Hurn Airport (Bus)","lat":0,"lon":0},{"tiploc":"LNDW","crs":"LDN","name":"Llandanwg","lat":52.83615994624459,"lon":-4.123856621788723},{"tiploc":"STHLNSJ","crs":"SHJ","name":"St Helens Junction","lat":53.43372393350581,"lon":-2.7002594271851814},{"tiploc":"CHRSTSH","crs":"CHH","name":"Christs Hospital","lat":51.0506841706552,"lon":-0.36355632706832447},{"tiploc":"CROMFD","crs":"CMF","name":"Cromford","lat":53.112930468306544,"lon":-1.54916186982457},{"tiploc":"HYDNSRD","crs":"HYR","name":"Haydons Road","lat":51.425446096759174,"lon":-0.18881470335824457},{"tiploc":"LNTN","crs":"LGN","name":"Longton","lat":52.98995111185622,"lon":-2.1370105616277058},{"tiploc":"HSFTLBD","crs":"XLB","name":"Leeds Bradford Airport (Bus)","lat":0,"lon":0},{"tiploc":"BXLYHTH","crs":"BXH","name":"Bexleyheath","lat":51.46349823744814,"lon":0.1337348778241144},{"tiploc":"CHIPNHM","crs":"CPM","name":"Chippenham","lat":51.46248625932685,"lon":-2.1153938890659556},{"tiploc":"DRMFCHR","crs":"DFR","name":"Drumfrochar","lat":55.941246405469805,"lon":-4.774765971658116},{"tiploc":"NWCOURT","crs":"NCO","name":"Newcourt","lat":50.70504003016696,"lon":-3.472784146827907},{"tiploc":"WEETON","crs":"WET","name":"Weeton","lat":53.92317632209905,"lon":-1.5812156292965975},{"tiploc":"EMPKWAY","crs":"EMD","name":"East Midlands Parkway","lat":52.862498885323696,"lon":-1.26323188758685},{"tiploc":"POPLTON","crs":"POP","name":"Poppleton","lat":53.975896235224596,"lon":-1.1485966423467293},{"tiploc":"ALSHAM","crs":"AYH","name":"Aylesham","lat":51.227252059475255,"lon":1.2094527769953805},{"tiploc":"UPMNLT","crs":"ZUM","name":"Upminster Underground","lat":51.55902,"lon":0.25091},{"tiploc":"CHFD","crs":"CHD","name":"Chesterfield","lat":53.23821850589172,"lon":-1.420115849660338},{"tiploc":"HEWOMTR","crs":"HEZ","name":"Heworth (T & W Metro)","lat":54.9516,"lon":-1.5558},{"tiploc":"PSBY","crs":"PRB","name":"Prestbury","lat":53.293381254894896,"lon":-2.1454824995677475},{"tiploc":"GOOSTRY","crs":"GTR","name":"Goostrey","lat":53.22255049235597,"lon":-2.3264703017229444},{"tiploc":"ACKLNGT","crs":"ACK","name":"Acklington","lat":55.30709696561217,"lon":-1.6518346310188625},{"tiploc":"KENSLG","crs":"KNL","name":"Kensal Green","lat":51.530538360749865,"lon":-0.22508765697178096},{"tiploc":"SNDOWN","crs":"SAN","name":"Sandown","lat":50.6568695899189,"lon":-1.162387329475566},{"tiploc":"TILEH","crs":"THL","name":"Tile Hill","lat":52.39510215739684,"lon":-1.596848383361263},{"tiploc":"SPTN","crs":"SIP","name":"Shipton","lat":51.86565245368683,"lon":-1.5926933114150619},{"tiploc":"STFODOM","crs":"SFA","name":"Stratford International","lat":51.54482631414697,"lon":-0.008777643917449477},{"tiploc":"UPWEY","crs":"UPW","name":"Upwey","lat":50.64826995604226,"lon":-2.4661380602376135},{"tiploc":"GIPSYH","crs":"GIP","name":"Gipsy Hill","lat":51.42445124677126,"lon":-0.08383591360508093},{"tiploc":"RTHGLEN","crs":"RUT","name":"Rutherglen","lat":55.8305912637968,"lon":-4.212104062445232},{"tiploc":"SELMSAL","crs":"SES","name":"South Elmsall","lat":53.59460651720795,"lon":-1.2848582759782057},{"tiploc":"TEINMTH","crs":"TGM","name":"Teignmouth","lat":50.54806028653963,"lon":-3.4946627198399445},{"tiploc":"ARDRSHB","crs":"ADS","name":"Ardrossan Harbour","lat":55.639870802970464,"lon":-4.821110298922474},{"tiploc":"BCHGRV","crs":"BCG","name":"Birchgrove","lat":51.52155442514465,"lon":-3.2018531942588697},{"tiploc":"ROCHFD","crs":"RFD","name":"Rochford","lat":51.581726649867726,"lon":0.7023032471095719},{"tiploc":"PSRN","crs":"PES","name":"Pensarn","lat":52.830704368555146,"lon":-4.11215964079145},{"tiploc":"BLAIRHL","crs":"BAI","name":"Blairhill","lat":55.866449660569266,"lon":-4.0432902652816365},{"tiploc":"TALB","crs":"TLB","name":"Talybont","lat":52.77262827673167,"lon":-4.096596334047657},{"tiploc":"PBROBST","crs":"PBU","name":"Peterborough Queensgate (Bus)","lat":0,"lon":0},{"tiploc":"STEVNGE","crs":"SVG","name":"Stevenage","lat":51.9016857038412,"lon":-0.20710945828705363},{"tiploc":"WAPPING","crs":"WPE","name":"Wapping","lat":51.50438617978932,"lon":-0.055930892717841074},{"tiploc":"BRIDGTN","crs":"BDG","name":"Bridgeton","lat":55.848961401443525,"lon":-4.226056226001148},{"tiploc":"THHT","crs":"THH","name":"Thatto Heath","lat":53.43658058761494,"lon":-2.759374449745876},{"tiploc":"ATNBRO","crs":"ATB","name":"Attenborough","lat":52.90621128767135,"lon":-1.2314155150633759},{"tiploc":"MOTHRWL","crs":"MTH","name":"Motherwell","lat":55.79167296299882,"lon":-3.9943252695432},{"tiploc":"WOKNGHM","crs":"WKM","name":"Wokingham","lat":51.41121673362042,"lon":-0.8425432228969281},{"tiploc":"GROSMNT","crs":"GMT","name":"Grosmont","lat":54.43611152004637,"lon":-0.724965617265729},{"tiploc":"ARLSEY","crs":"ARL","name":"Arlesey","lat":52.026029445794435,"lon":-0.2663198291330011},{"tiploc":"BARGOED","crs":"BGD","name":"Bargoed","lat":51.69230742284197,"lon":-3.22967951657234},{"tiploc":"RDHAMN","crs":"REE","name":"Reedham (Norfolk)","lat":52.564501418728966,"lon":1.5596512495088084},{"tiploc":"HONROPK","crs":"HPA","name":"Honor Oak Park","lat":51.44998710641613,"lon":-0.04550544912470422},{"tiploc":"NNTN","crs":"NUN","name":"Nuneaton","lat":52.5263688981183,"lon":-1.4638752026538313},{"tiploc":"GLGAPT","crs":"GGT","name":"Glasgow Airport (Bus)","lat":0,"lon":0},{"tiploc":"TRIMLEY","crs":"TRM","name":"Trimley","lat":51.97652670643963,"lon":1.3195363791898391},{"tiploc":"WITLEY","crs":"WTY","name":"Witley","lat":51.13316017797117,"lon":-0.64578302156456},{"tiploc":"SNWDNAN","crs":"SWO","name":"Snowdown","lat":51.21529792638638,"lon":1.2137051135102668},{"tiploc":"MSTONEB","crs":"MDB","name":"Maidstone Barracks","lat":51.27716747493778,"lon":0.5139601567481406},{"tiploc":"ENFLDLK","crs":"ENL","name":"Enfield Lock","lat":51.67092021469247,"lon":-0.028532460355955296},{"tiploc":"MITCHMJ","crs":"MIJ","name":"Mitcham Junction","lat":51.392948269315035,"lon":-0.15775664034617784},{"tiploc":"MSTONEE","crs":"MDE","name":"Maidstone East","lat":51.2778281023892,"lon":0.5212950677735491},{"tiploc":"GDLMING","crs":"GOD","name":"Godalming","lat":51.18658481958653,"lon":-0.6188623046937117},{"tiploc":"HTHRGRN","crs":"HGR","name":"Hither Green","lat":51.45202339017424,"lon":-0.0009442471374142076},{"tiploc":"SPDN","crs":"SPO","name":"Spondon","lat":52.91221758576444,"lon":-1.4110939241799283},{"tiploc":"WDWTOWN","crs":"WNT","name":"Wandsworth Town","lat":51.46104594249781,"lon":-0.188125474815238},{"tiploc":"ECROYDN","crs":"ECR","name":"East Croydon","lat":51.37545193081551,"lon":-0.09277969498286084},{"tiploc":"CLST","crs":"CLS","name":"Chester-le-Street","lat":54.85459289744248,"lon":-1.5780152721263159},{"tiploc":"QUAKRSY","crs":"QYD","name":"Quakers Yard","lat":51.66072355028108,"lon":-3.3228003923143334},{"tiploc":"WATBECH","crs":"WBC","name":"Waterbeach","lat":52.262303562822524,"lon":0.19679051029094718},{"tiploc":"NESTON","crs":"NES","name":"Neston","lat":53.29184946362797,"lon":-3.0630760899384444},{"tiploc":"PSLYCAN","crs":"PCN","name":"Paisley Canal","lat":55.840075825798415,"lon":-4.424117325023884},{"tiploc":"WALERTN","crs":"WSA","name":"West Allerton","lat":53.3691230163462,"lon":-2.9069642052524043},{"tiploc":"SHWFAIR","crs":"SFI","name":"Shawfair","lat":55.91993785573309,"lon":-3.078711960200709},{"tiploc":"SLEGHTS","crs":"SLH","name":"Sleights","lat":54.46105113543207,"lon":-0.6624808188996181},{"tiploc":"HATTON","crs":"HTN","name":"Hatton","lat":52.29527614704971,"lon":-1.6729751598647165},{"tiploc":"KVTNBDG","crs":"KIV","name":"Kiveton Bridge","lat":53.34095624342764,"lon":-1.2671793921663597},{"tiploc":"RISHTON","crs":"RIS","name":"Rishton","lat":53.763813165444645,"lon":-2.4201576603398367},{"tiploc":"DORMANS","crs":"DMS","name":"Dormans","lat":51.1557898965699,"lon":-0.004308260216713552},{"tiploc":"LINCLNC","crs":"LCN","name":"Lincoln Central","lat":53.226085430844996,"lon":-0.5399219252458871},{"tiploc":"ALBNHV","crs":"AYP","name":"Albany Park","lat":51.43545074209875,"lon":0.12573707258458985},{"tiploc":"ERIDBUS","crs":"ERI","name":"Eridge","lat":51.0889636957593,"lon":0.20143172133156884},{"tiploc":"LHRBHC","crs":"XHC","name":"Hatton Cross (Bus)","lat":0,"lon":0},{"tiploc":"BRNAMKT","crs":"BMK","name":"Burnham Market (Bus)","lat":0,"lon":0},{"tiploc":"WALHAMX","crs":"WLC","name":"Waltham Cross","lat":51.68505910708776,"lon":-0.02655839253652893},{"tiploc":"WKNTBS","crs":"WOX","name":"Workington Bus Station","lat":0,"lon":0},{"tiploc":"HLSTWOO","crs":"XAV","name":"Helston (Bus)","lat":0,"lon":0},{"tiploc":"MRPTHRP","crs":"MPT","name":"Morpeth","lat":55.16237484350375,"lon":-1.6830745047493623},{"tiploc":"MSTONEW","crs":"MDW","name":"Maidstone West","lat":51.27046418283473,"lon":0.5157734395383977},{"tiploc":"WLNGBRO","crs":"WEL","name":"Wellingborough","lat":52.303780941686156,"lon":-0.6766509178766319},{"tiploc":"HRGYSTD","crs":"HRY","name":"Harringay Green Lanes","lat":51.577180346683036,"lon":-0.09814377245064193},{"tiploc":"MOBERLY","crs":"MOB","name":"Mobberley","lat":53.3291375834264,"lon":-2.3336654262450476},{"tiploc":"SWALE","crs":"SWL","name":"Swale","lat":51.389234243243365,"lon":0.747133634237231},{"tiploc":"ECCLES","crs":"ECC","name":"Eccles","lat":53.485356902115,"lon":-2.334514273749063},{"tiploc":"HEWORTH","crs":"HEW","name":"Heworth","lat":54.951566653928026,"lon":-1.5557661266150986},{"tiploc":"LLGNNCH","crs":"LLH","name":"Llangennech","lat":51.691134265350954,"lon":-4.078929312526799},{"tiploc":"BRKWOOD","crs":"BKO","name":"Brookwood","lat":51.30375613303132,"lon":-0.6357478718960062},{"tiploc":"GUISELY","crs":"GSY","name":"Guiseley","lat":53.87593267425971,"lon":-1.7150799174402407},{"tiploc":"SELBY","crs":"SBY","name":"Selby","lat":53.78278333014686,"lon":-1.0637859417157975},{"tiploc":"WEMBNEX","crs":"WCS","name":"Wembley Stadium (Bus)","lat":0,"lon":0},{"tiploc":"WSTBRYW","crs":"WSB","name":"Westbury","lat":51.26698437441283,"lon":-2.1991816776934567},{"tiploc":"ETCHNGM","crs":"ETC","name":"Etchingham","lat":51.010544161933936,"lon":0.4423562844585348},{"tiploc":"BLANTYR","crs":"BLT","name":"Blantyre","lat":55.797324406118534,"lon":-4.086970693586628},{"tiploc":"STANAIR","crs":"SSD","name":"Stansted Airport","lat":51.888589131846814,"lon":0.2608155053439712},{"tiploc":"DORE","crs":"DOR","name":"Dore","lat":53.32763268084741,"lon":-1.5152976184887708},{"tiploc":"NAVGTNR","crs":"NVR","name":"Navigation Road","lat":53.39537429978985,"lon":-2.343417127044364},{"tiploc":"CFFT","crs":"CFF","name":"Croftfoot","lat":55.818255201893635,"lon":-4.228324589497558},{"tiploc":"CRKRN","crs":"CKN","name":"Crewkerne","lat":50.87353383773213,"lon":-2.778495992018508},{"tiploc":"GLNRTHS","crs":"GLT","name":"Glenrothes with Thornton","lat":56.16235603856619,"lon":-3.1430152965050335},{"tiploc":"WATLGTN","crs":"WTG","name":"Watlington","lat":52.67316965969954,"lon":0.3833160874992912},{"tiploc":"BNBR","crs":"BAN","name":"Banbury","lat":52.0603064839711,"lon":-1.328132787927425},{"tiploc":"HAYS","crs":"HYS","name":"Hayes (Kent)","lat":51.376331958057854,"lon":0.010556711722336817},{"tiploc":"BUILTHR","crs":"BHR","name":"Builth Road","lat":52.1693204295619,"lon":-3.4270325387198746},{"tiploc":"KGWD","crs":"KND","name":"Kingswood","lat":51.29472286699221,"lon":-0.21124755322648878},{"tiploc":"KNORTON","crs":"KNN","name":"Kings Norton","lat":52.41428899731029,"lon":-1.9323257367263669},{"tiploc":"WLVR","crs":"WOL","name":"Wolverton","lat":52.06587601199757,"lon":-0.8042669764303993},{"tiploc":"WTRORTN","crs":"WTO","name":"Water Orton","lat":52.518583408775875,"lon":-1.743090383782568},{"tiploc":"AIRDRIE","crs":"ADR","name":"Airdrie","lat":55.86397765192855,"lon":-3.982912018304417},{"tiploc":"LNDC","crs":"LLC","name":"Llandecwyn","lat":52.92068301295179,"lon":-4.057034603026822},{"tiploc":"PSTONE","crs":"PKS","name":"Parkstone (Dorset)","lat":50.722977068126426,"lon":-1.9479564877146922},{"tiploc":"GOMSHAL","crs":"GOM","name":"Gomshall","lat":51.21939670761506,"lon":-0.44185217851218306},{"tiploc":"TYNDRML","crs":"TYL","name":"Tyndrum Lower","lat":56.433341008113324,"lon":-4.714820993052909},{"tiploc":"BOWESPK","crs":"BOP","name":"Bowes Park","lat":51.607010020708174,"lon":-0.12058194853157841},{"tiploc":"HRGYGL","crs":"HRY","name":"Harringay Green Lanes","lat":51.577180346683036,"lon":-0.09814377245064193},{"tiploc":"HERSHAM","crs":"HER","name":"Hersham","lat":51.37681022187493,"lon":-0.38995925073186316},{"tiploc":"WORTHNG","crs":"WRH","name":"Worthing","lat":50.81849699250669,"lon":-0.3761714517710371},{"tiploc":"BOLTON","crs":"BON","name":"Bolton","lat":53.57414163728072,"lon":-2.42582462778998},{"tiploc":"BRDFDOA","crs":"BOA","name":"Bradford-on-Avon","lat":51.344912468175174,"lon":-2.252326638203564},{"tiploc":"CHADHDD","crs":"CFH","name":"Chafford Hundred","lat":51.485555292364644,"lon":0.2874469313652822},{"tiploc":"TYNDRMU","crs":"UTY","name":"Upper Tyndrum","lat":56.43466206759634,"lon":-4.7037213782878},{"tiploc":"NRBERTH","crs":"NAR","name":"Narberth","lat":51.79936657249062,"lon":-4.7271750023046595},{"tiploc":"BKDLE","crs":"BDL","name":"Birkdale","lat":53.63404793441169,"lon":-3.0144495759766166},{"tiploc":"HMST","crs":"HMT","name":"Ham Street","lat":51.068376486863706,"lon":0.8545063323635825},{"tiploc":"MELKSHM","crs":"MKM","name":"Melksham","lat":51.37982121343915,"lon":-2.144496977876013},{"tiploc":"ASCTUWD","crs":"AUW","name":"Ascott-under-Wychwood","lat":51.86733908563591,"lon":-1.564052662346737},{"tiploc":"EALINGB","crs":"EAL","name":"Ealing Broadway","lat":51.514839622384564,"lon":-0.3017517585183477},{"tiploc":"EALINGC","crs":"EAL","name":"Ealing Broadway","lat":51.514839622384564,"lon":-0.3017517585183477},{"tiploc":"WTBY","crs":"WTB","name":"Whitby","lat":54.48460825807038,"lon":-0.6154029094098699},{"tiploc":"CANONST","crs":"CST","name":"London Cannon Street","lat":51.51138045355871,"lon":-0.09029297465945531},{"tiploc":"DARWEN","crs":"DWN","name":"Darwen","lat":53.69803429849242,"lon":-2.464939658082388},{"tiploc":"BRMLYSR","crs":"BLE","name":"Bramley (West Yorkshire)","lat":53.80534713159386,"lon":-1.6372061939166054},{"tiploc":"ALEXNDP","crs":"AAP","name":"Alexandra Palace","lat":51.597922137232686,"lon":-0.12023521403096685},{"tiploc":"NUTFILD","crs":"NUF","name":"Nutfield","lat":51.22681170138709,"lon":-0.1325313182123676},{"tiploc":"STIRLNG","crs":"STG","name":"Stirling","lat":56.119815732043165,"lon":-3.9356194947899046},{"tiploc":"CULLMKH","crs":"XDX","name":"Cullompton (Bus)","lat":0,"lon":0},{"tiploc":"HONITNS","crs":"HON","name":"Honiton","lat":50.796579350564876,"lon":-3.186717808982303},{"tiploc":"BRSTPWY","crs":"BPW","name":"Bristol Parkway","lat":51.51379949629592,"lon":-2.5421630495274155},{"tiploc":"KNTBRY","crs":"KIT","name":"Kintbury","lat":51.40252025632986,"lon":-1.445988871669746},{"tiploc":"RDLEY","crs":"RAD","name":"Radley","lat":51.68620419548325,"lon":-1.2404820423060487},{"tiploc":"GTSHDMC","crs":"MCE","name":"Metro Centre","lat":54.95874771106297,"lon":-1.6656259024557258},{"tiploc":"STNLWAT","crs":"SNT","name":"Stanlow & Thornton","lat":53.27836089130091,"lon":-2.8420514306856375},{"tiploc":"BARRYDK","crs":"BYD","name":"Barry Docks","lat":51.40243987810458,"lon":-3.260703306488731},{"tiploc":"DLMYJN","crs":"DAM","name":"Dalmeny","lat":55.986317614615565,"lon":-3.3816195779071316},{"tiploc":"FINSTCK","crs":"FIN","name":"Finstock","lat":51.85278044770955,"lon":-1.4693429732145418},{"tiploc":"BDMNSTR","crs":"BMT","name":"Bedminster","lat":51.440086163268816,"lon":-2.594148928636209},{"tiploc":"HASLEMR","crs":"HSL","name":"Haslemere","lat":51.08864639716551,"lon":-0.7191626210215357},{"tiploc":"CLCHRTN","crs":"CET","name":"Colchester Town","lat":51.88645380447573,"lon":0.9047625215849444},{"tiploc":"HLDG","crs":"HDG","name":"Heald Green","lat":53.36941407075436,"lon":-2.23666733735219},{"tiploc":"PNTH","crs":"PNR","name":"Penrith","lat":54.661803634077664,"lon":-2.758880666238205},{"tiploc":"ABNGSTR","crs":"XAE","name":"Abingdon (Bus)","lat":0,"lon":0},{"tiploc":"MERSTHM","crs":"MHM","name":"Merstham","lat":51.26415234420119,"lon":-0.1502256766212361},{"tiploc":"HOSCAR","crs":"HSC","name":"Hoscar","lat":53.59776652284931,"lon":-2.8044208500644543},{"tiploc":"STNEOTS","crs":"SNO","name":"St Neots","lat":52.23156579091593,"lon":-0.2474139037283939},{"tiploc":"BELNGHM","crs":"BGM","name":"Bellingham","lat":51.43291117408614,"lon":-0.019330802656895463},{"tiploc":"NETLEY","crs":"NTL","name":"Netley","lat":50.87490750220824,"lon":-1.3419028362101204},